{"version": 0.6, "generator": "Overpass API 0.7.62.11 87bfad18", "osm3s": {"timestamp_osm_base": "2026-04-21T17:43:45Z", "copyright": "The data included in this document is from www.openstreetmap.org. The data is made available under ODbL."}, "elements": [{"type": "node", "id": 25213787, "lat": 48.9666276, "lon": 2.4662447, "tags": {"addr:postcode": "95500", "address": "D 370 - direction A 104/Aulnay-s/s-Bois, Avenue Nungesser et Coli", "amenity": "fuel", "brand": "Total Access", "brand:wikidata": "Q154037", "brand:wikipedia": "fr:Total (entreprise)", "compressed_air": "yes", "fuel:diesel": "yes", "fuel:e10": "yes", "fuel:e85": "yes", "fuel:octane_98": "yes", "hgv:lanes": "yes", "name": "Les Tulipes", "opening_hours": "24/7", "phone": "+33 1 39 85 03 96", "ref:FR:prix-carburants": "95500010", "shop": "convenience", "source": "Minist\u00e8re de l'Economie, de l'Industrie et du Num\u00e9rique - 03/2020", "toilets": "yes", "vending": "fuel", "vending_machine": "fuel", "website": "https://store.totalenergies.fr/en_EN/NF062026"}}, {"type": "node", "id": 25214713, "lat": 48.9346389, "lon": 2.3941778, "tags": {"addr:postcode": "93120", "address": "A 1 - Direction Lille/Paris, Aire De La Courneuve", "amenity": "fuel", "brand": "TotalEnergies", "brand:wikidata": "Q154037", "compressed_air": "yes", "fuel:diesel": "yes", "fuel:e10": "yes", "fuel:e85": "yes", "fuel:lpg": "yes", "fuel:octane_98": "yes", "hgv:lanes": "yes", "name": "TotalEnergies", "opening_hours": "24/7", "ref:FR:prix-carburants": "93120005", "shop": "convenience", "source": "Minist\u00e8re de l'Economie, de l'Industrie et du Num\u00e9rique - 03/2020", "toilets": "yes"}}, {"type": "node", "id": 181290562, "lat": 48.8956757, "lon": 2.2228116, "tags": {"brand": "Franprix", "brand:wikidata": "Q2420096", "brand:wikipedia": "fr:Franprix", "check_date:opening_hours": "2025-11-12", "name": "Franprix", "opening_hours": "Su 09:00-21:00; Mo-Sa 07:30-21:00", "operator": "Groupe Casino", "shop": "convenience", "website": "https://www.franprix.fr/magasins/5045", "wheelchair": "yes"}}, {"type": "node", "id": 202822347, "lat": 48.875847, "lon": 2.3239479}, {"type": "node", "id": 255003455, "lat": 48.8841896, "lon": 2.2703742, "tags": {"amenity": "fuel", "brand": "Total", "brand:wikidata": "Q154037", "brand:wikipedia": "fr:TotalEnergies", "compressed_air": "yes", "fuel:diesel": "yes", "fuel:e10": "yes", "fuel:octane_98": "yes", "location": "underground", "name": "Total", "opening_hours": "Mo-Su 06:00-22:00", "phone": "+33 1 47 47 15 72", "ref:FR:prix-carburants": "92200005", "shop": "convenience", "source": "Minist\u00e8re de l'Economie, de l'Industrie et du Num\u00e9rique - 22/10/2016", "toilets": "yes", "website": "https://store.totalenergies.fr/en_EN/NF042068"}}, {"type": "node", "id": 286818703, "lat": 48.8729563, "lon": 2.3536136, "tags": {"alt_name": "Papica", "brand": "Franprix", "brand:wikidata": "Q2420096", "brand:wikipedia": "fr:Franprix", "check_date": "2023-10-15", "contact:city": "Paris", "contact:housenumber": "7", "contact:phone": "+33 1 45 23 46 28", "contact:postcode": "75010", "contact:street": "Rue des Petites-\u00c9curies", "contact:website": "https://www.franprix.fr/magasins/5070", "int_name": "Franprix", "name": "Franprix", "old_name": "Habarnam", "opening_hours": "Mo-Sa 07:30-23:00; Su 08:30-23:00", "operator": "Groupe Casino", "ref:FR:SIRET": "31971274100010", "shop": "convenience"}}, {"type": "node", "id": 294038636, "lat": 48.8785823, "lon": 2.3740899, "tags": {"brand": "Franprix", "brand:wikidata": "Q2420096", "brand:wikipedia": "fr:Franprix", "check_date": "2024-11-06", "name": "Franprix", "opening_hours": "Mo-Sa 07:30-21:00; Su 08:30-21:00", "operator": "Groupe Casino", "phone": "+33 9 70 17 14 14", "ref:FR:SIRET": "31776032000018", "shop": "convenience", "website": "https://www.franprix.fr/magasins/5063", "wheelchair": "yes"}}, {"type": "node", "id": 303950408, "lat": 48.906748, "lon": 2.117216}, {"type": "node", "id": 304767534, "lat": 49.03342, "lon": 2.0211314, "tags": {"addr:street": "Place du Rendez-Vous", "brand": "Intermarch\u00e9", "brand:wikidata": "Q3153200", "brand:wikipedia": "fr:Intermarch\u00e9", "check_date": "2025-11-30", "name": "Intermarch\u00e9", "opening_hours": "Mo-Th 08:30-20:00; Fr-Sa 08:30-20:00; Su 09:00-18:00", "operator": "Groupement des Mousquetaires", "phone": "+33 1 34 30 99 80", "shop": "supermarket", "website": "https://www.intermarche.com/magasin?pdvref=04985"}}, {"type": "node", "id": 304812612, "lat": 49.0380376, "lon": 2.0815003, "tags": {"addr:postcode": "95000", "brand": "Auchan", "brand:wikidata": "Q758603", "name": "Auchan", "opening_hours": "Mo-Sa 08:30-21:00; Su 09:00-12:30", "operator": "Auchan", "shop": "supermarket"}}, {"type": "node", "id": 304964998, "lat": 48.8738805, "lon": 2.3578984, "tags": {"brand": "Franprix", "brand:wikidata": "Q2420096", "brand:wikipedia": "fr:Franprix", "check_date": "2025-10-17", "contact:city": "Paris", "contact:housenumber": "55", "contact:phone": "+33 1 46 07 37 66", "contact:postcode": "75010", "contact:street": "Boulevard de Magenta", "name": "Franprix", "opening_hours": "Mo-Sa 08:00-21:45, Su 09:00-11:45", "operator": "Groupe Casino", "ref:FR:SIRET": "85009637100024", "shop": "convenience", "website": "https://www.franprix.fr/magasins/1103", "wheelchair": "limited"}}, {"type": "node", "id": 309848547, "lat": 48.9242568, "lon": 2.1873905, "tags": {"addr:housenumber": "11", "addr:postcode": "78800", "addr:street": "Place Michelet", "brand": "Netto", "brand:wikidata": "Q2720988", "check_date": "2026-02-07", "name": "Netto", "opening_hours": "Mo-Sa 08:00-20:30; Su 08:30-13:00", "operator": "Netto", "phone": "+33 1 61 04 44 00", "shop": "supermarket", "website": "https://magasin.netto.fr/533-netto-houilles", "wheelchair": "yes"}}, {"type": "node", "id": 321510690, "lat": 48.970527, "lon": 2.196242}, {"type": "node", "id": 326948277, "lat": 48.8801829, "lon": 2.3650646, "tags": {"brand": "Franprix", "brand:wikidata": "Q2420096", "brand:wikipedia": "fr:Franprix", "check_date": "2025-10-11", "contact:city": "Paris", "contact:housenumber": "16", "contact:phone": "+33 1 42 09 70 10", "contact:postcode": "75010", "contact:street": "Rue Alexandre Parodi", "name": "Franprix", "opening_hours": "Mo-Sa 07:30-22:00; Su 09:00-12:00", "operator": "Groupe Casino", "ref:FR:SIRET": "31873171800017", "shop": "convenience", "toilets:wheelchair": "no", "website": "https://www.franprix.fr/magasins/5067", "wheelchair": "yes"}}, {"type": "node", "id": 358077254, "lat": 48.9193791, "lon": 2.3132938}, {"type": "node", "id": 358077258, "lat": 48.918982, "lon": 2.3142059}, {"type": "node", "id": 358077260, "lat": 48.9189506, "lon": 2.3140734}, {"type": "node", "id": 358077261, "lat": 48.9190241, "lon": 2.3139735}, {"type": "node", "id": 358077263, "lat": 48.9193106, "lon": 2.313315}, {"type": "node", "id": 361128869, "lat": 48.8711773, "lon": 2.3598989, "tags": {"addr:housenumber": "9", "addr:street": "Rue Lucien Sampaix", "brand": "Carrefour City", "brand:wikidata": "Q2940187", "brand:wikipedia": "fr:Carrefour City", "check_date": "2025-06-23", "contact:phone": "+33142039259", "level": "0", "name": "Carrefour City", "opening_hours": "Mo-Sa 07:00-23:00; Su 09:00-20:00", "operator": "Groupe Carrefour", "operator:wikidata": "Q3117359", "operator:wikipedia": "fr:Groupe Carrefour", "organic": "yes", "ref:FR:SIRET": "81540090800027", "shop": "convenience", "source": "cadastre-dgi-fr source : Direction G\u00e9n\u00e9rale des Imp\u00f4ts - Cadastre. Mise \u00e0 jour : 2010", "toilets": "no", "website": "https://www.carrefour.fr/magasin/city-paris-lucien-sampaix", "wheelchair": "yes"}}, {"type": "node", "id": 364848473, "lat": 48.8837017, "lon": 2.204797}, {"type": "node", "id": 408501350, "lat": 48.8979715, "lon": 2.3359868, "tags": {"brand": "CocciMarket City", "brand:wikidata": "Q90020481", "name": "CocciMarket City", "shop": "convenience", "source": "Observations personnelles"}}, {"type": "node", "id": 410463368, "lat": 48.9718724, "lon": 2.3215057, "tags": {"operator": "March\u00e9 des Mortefontaines", "shop": "supermarket"}}, {"type": "node", "id": 415923608, "lat": 48.9712401, "lon": 2.3212597, "tags": {"brand": "Carrefour City", "brand:wikidata": "Q2940187", "brand:wikipedia": "fr:Carrefour City", "name": "Carrefour City", "opening_hours": "Mo-Sa 07:00-21:00; Su 09:00-13:00", "operator": "Carrefour", "phone": "+33 9 81 78 18 93", "shop": "convenience", "website": "https://www.carrefour.fr/magasin/city-deuil-la-barre"}}, {"type": "node", "id": 416631577, "lat": 48.8726806, "lon": 2.3713825, "tags": {"brand": "Franprix", "brand:wikidata": "Q2420096", "brand:wikipedia": "fr:Franprix", "check_date": "2025-03-27", "contact:city": "Paris", "contact:housenumber": "206", "contact:postcode": "75010", "contact:street": "Rue Saint-Maur", "name": "Franprix", "opening_hours": "Mo-Sa 07:30-22:00; Su 09:00-22:00", "operator": "Franprix", "ref:FR:SIRET": "44004218200020", "shop": "convenience", "source": "survey 2013", "website": "https://www.franprix.fr/magasins/5333", "wheelchair": "yes"}}, {"type": "node", "id": 416673084, "lat": 48.8764439, "lon": 2.3684913, "tags": {"branch": "Paris Grange aux belles", "brand": "Bio C' Bon", "brand:wikidata": "Q54312551", "check_date": "2024-11-06", "contact:city": "Paris", "contact:housenumber": "49", "contact:phone": "+33 1 48 74 09 80", "contact:postcode": "75010", "contact:street": "Rue de la Grange aux Belles", "contact:website": "https://bio-c-bon.eu/fr/nos_magasins/bio-c-bon-paris-grange-aux-belles", "name": "Bio C' Bon", "old_name": "Carrefour Express", "opening_hours": "Mo-Sa 09:30-20:00; Su 09:30-13:00", "organic": "only", "ref:FR:SIRET": "49930885601360", "shop": "supermarket", "wheelchair": "yes"}}, {"type": "node", "id": 416709646, "lat": 48.8712322, "lon": 2.3743386, "tags": {"brand": "Franprix", "brand:wikidata": "Q2420096", "brand:wikipedia": "fr:Franprix", "check_date": "2025-06-22", "contact:city": "Paris", "contact:housenumber": "113", "contact:postcode": "75010", "contact:street": "Rue du Faubourg du Temple", "disused:shop": "convenience", "name": "Franprix", "opening_hours": "Mo-Su 08:30-21:00", "operator": "Groupe Casino", "ref:FR:SIRET": "42144636000024", "shop": "convenience", "wheelchair": "yes"}}, {"type": "node", "id": 423479830, "lat": 49.020327, "lon": 2.455997}, {"type": "node", "id": 423479831, "lat": 49.020037, "lon": 2.456177}, {"type": "node", "id": 423479832, "lat": 49.020359, "lon": 2.457192}, {"type": "node", "id": 423479833, "lat": 49.020425, "lon": 2.457134}, {"type": "node", "id": 423479834, "lat": 49.020677, "lon": 2.45743}, {"type": "node", "id": 423479835, "lat": 49.020942, "lon": 2.457188}, {"type": "node", "id": 423479836, "lat": 49.020965, "lon": 2.457242}, {"type": "node", "id": 423479837, "lat": 49.021228, "lon": 2.457003}, {"type": "node", "id": 428925196, "lat": 48.9784475, "lon": 2.3048269}, {"type": "node", "id": 433366341, "lat": 48.8860129, "lon": 2.3833794, "tags": {"addr:housenumber": "118/130", "addr:postcode": "75019", "addr:street": "Avenue Jean Jaur\u00e8s", "brand": "Monoprix", "brand:wikidata": "Q3321241", "brand:wikipedia": "en:Monoprix", "check_date": "2025-10-24", "name": "Monoprix", "name:en": "Monoprix", "name:fr": "Monoprix", "opening_hours": "Mo-Sa 08:00-22:00; Su 09:00-20:00", "operator": "Groupe Casino", "phone": "+33 1 48 03 33 29", "ref:FR:SIRET": "55208329701315", "shop": "supermarket", "website": "https://www.monoprix.fr/794.html"}}, {"type": "node", "id": 441241121, "lat": 48.9027596, "lon": 2.2683176, "tags": {"addr:postcode": "92400", "brand": "Monoprix", "brand:wikidata": "Q3321241", "brand:wikipedia": "fr:Monoprix (France)", "name": "Monoprix", "opening_hours": "Mo-Sa 08:00-21:00; Su 09:00-20:00", "operator": "Groupe Casino", "phone": "+33 1 43 33 23 42", "ref:FR:SIRET": "55208329700374", "self_checkout": "yes", "shop": "supermarket", "website": "https://www.monoprix.fr/819.html", "wheelchair": "yes"}}, {"type": "node", "id": 441390751, "lat": 49.06279, "lon": 2.0926795, "tags": {"shop": "supermarket"}}, {"type": "node", "id": 443454836, "lat": 48.8847815, "lon": 2.4762073, "tags": {"addr:city": "Rosny-sous-Bois", "addr:postcode": "93110", "addr:street": "Avenue du G\u00e9n\u00e9ral de Gaulle", "brand": "Carrefour", "brand:wikidata": "Q217599", "brand:wikipedia": "fr:Carrefour (enseigne)", "level": "0", "name": "Carrefour", "opening_hours": "Mo-Sa 08:30-21:30; Su 08:30-12:30", "operator": "Carrefour", "shop": "supermarket", "website": "https://www.carrefour.fr/magasin/rosny-sous-bois"}}, {"type": "node", "id": 446866185, "lat": 48.8740289, "lon": 2.3897101, "tags": {"brand": "Naturalia", "brand:wikidata": "Q3337081", "brand:wikipedia": "fr:Naturalia", "contact:phone": "+33 1 40 33 00 69", "name": "Naturalia", "opening_hours": "Mo-Sa 09:00-20:45;Su 09:00-12:45", "operator": "Groupe Casino", "organic": "only", "ref:FR:SIRET": "30247464800433", "shop": "supermarket", "website": "https://naturalia.fr/"}}, {"type": "node", "id": 457836536, "lat": 48.9746449, "lon": 2.0426431, "tags": {"amenity": "fuel", "brand": "TotalEnergies", "brand:wikidata": "Q154037", "brand:wikipedia": "fr:TotalEnergies", "compressed_air": "yes", "fuel:diesel": "yes", "fuel:e10": "yes", "fuel:octane_98": "yes", "hgv:lanes": "yes", "name": "TotalEnergies", "opening_hours": "24/7", "phone": "+33 1 39 74 74 68", "ref:FR:prix-carburants": "78570001", "shop": "convenience", "source": "Minist\u00e8re de l'Economie, de l'Industrie et du Num\u00e9rique - 03/2020", "vending": "fuel", "vending_machine": "fuel", "website": "https://store.totalenergies.fr/en_EN/NF033376"}}, {"type": "node", "id": 459783450, "lat": 48.9172735, "lon": 2.3521903, "tags": {"brand": "monop'", "brand:wikidata": "Q3321241", "brand:wikipedia": "fr:Monoprix (France)", "check_date": "2025-06-16", "name": "monop'", "opening_hours": "Mo-Fr 07:00-22:00; Sa 08:00-22:00", "operator": "Groupe Casino", "phone": "+33 1 49 46 12 20", "shop": "supermarket", "website": "https://www.monoprix.fr/1338.html", "wheelchair": "yes"}}, {"type": "node", "id": 463700064, "lat": 48.8834355, "lon": 2.3203247, "tags": {"addr:city": "Paris", "addr:housenumber": "75", "addr:postcode": "75017", "addr:street": "Rue des Dames", "brand": "Franprix", "brand:wikidata": "Q2420096", "brand:wikipedia": "fr:Franprix", "name": "Franprix", "opening_hours": "Mo-Sa 07:30-21:00; Su 09:00-14:00+", "operator": "Groupe Casino", "phone": "+33 9 70 17 14 14", "ref:FR:SIRET": "44428835100018", "shop": "convenience", "website": "https://www.franprix.fr/magasins/5457", "wheelchair": "yes"}}, {"type": "node", "id": 463703260, "lat": 48.8862362, "lon": 2.3189274, "tags": {"brand": "Franprix", "brand:wikidata": "Q2420096", "brand:wikipedia": "fr:Franprix", "name": "Franprix", "opening_hours": "Mo-Sa 08:30-21:00, Su 09:00-12:00+", "operator": "Groupe Casino", "shop": "convenience", "wheelchair": "yes"}}, {"type": "node", "id": 463705952, "lat": 48.8850436, "lon": 2.3209236, "tags": {"branch": "Paris Batignolles", "brand": "Carrefour Express", "brand:wikidata": "Q2940190", "brand:wikipedia": "fr:Carrefour Express", "name": "Carrefour Express", "opening_hours": "Mo-Su 08:00-22:00", "operator": "Carrefour Express", "phone": "+33 1 43871883", "shop": "convenience", "website": "https://www.carrefour.fr/magasin/express-paris-batignolles", "wheelchair": "yes"}}, {"type": "node", "id": 463721572, "lat": 48.8820794, "lon": 2.3158563, "tags": {"branch": "Dames", "brand": "Monoprix", "brand:website": "https://www.monoprix.fr/", "brand:wikidata": "Q3321241", "brand:wikipedia": "fr:Monoprix (France)", "contact:city": "Paris", "contact:housenumber": "125", "contact:postcode": "75017", "contact:street": "Rue des Dames", "name": "Monoprix", "opening_hours": "Mo-Sa 09:00-22:00,09:00-18:00; Su 09:00-12:45", "operator": "Groupe Casino", "shop": "supermarket", "website": "https://www.monoprix.fr/341.html", "wheelchair": "yes"}}, {"type": "node", "id": 473671586, "lat": 48.8760599, "lon": 2.1697186, "tags": {"addr:housenumber": "262", "addr:postcode": "92500", "addr:street": "Avenue Napol\u00e9on Bonaparte", "branch": "Rueil-Malmaison", "brand": "Auchan Supermarch\u00e9", "brand:wikidata": "Q105857776", "contact:phone": "+33 1 55 47 07 49", "name": "Auchan Supermarch\u00e9", "opening_hours": "Mo-Sa 08:30-21:00; Su 08:30-13:00, 13:30-20:00", "operator": "Auchan Supermarch\u00e9", "shop": "supermarket", "website": "https://www.auchan.fr/magasins/supermarche-rueil-malmaison/sl-1249"}}, {"type": "node", "id": 474696202, "lat": 48.9280199, "lon": 2.0422266, "tags": {"addr:city": "Poissy", "addr:housenumber": "30", "addr:postcode": "78300", "addr:street": "Avenue du Cep", "brand": "Intermarch\u00e9 Express", "brand:wikidata": "Q98278043", "name": "Intermarch\u00e9 Express", "note": "Anciennement : Casino", "opening_hours": "Mo-Sa 08:00-20:30; Su 09:00-13:00", "operator": "Casino", "phone": "+33171521964", "shop": "convenience", "website": "https://www.intermarche.com/magasins/10909/poissy-78300/infos-pratiques"}}, {"type": "node", "id": 474743465, "lat": 48.9340124, "lon": 2.0519913, "tags": {"addr:city": "Poissy", "addr:housenumber": "53", "addr:postcode": "78300", "addr:street": "Boulevard Robespierre", "brand": "Monoprix", "brand:wikidata": "Q3321241", "brand:wikipedia": "fr:Monoprix (France)", "check_date": "2024-06-09", "name": "Monoprix", "opening_hours": "Mo-Sa 08:00-21:00; Su 08:00-12:45", "operator": "Groupe Casino", "phone": "+33 1 30 65 24 00", "shop": "supermarket", "website": "https://www.monoprix.fr/1830.html"}}, {"type": "node", "id": 476757242, "lat": 48.8844643, "lon": 2.4302306, "tags": {"amenity": "fuel", "brand": "Total", "brand:wikidata": "Q154037", "compressed_air": "yes", "fuel:diesel": "yes", "fuel:e10": "yes", "fuel:octane_98": "yes", "name": "Relais des Fontaines", "opening_hours": "24/7", "operator": "Total", "ref:FR:prix-carburants": "93230005", "shop": "convenience", "source": "Minist\u00e8re de l'Economie, de l'Industrie et du Num\u00e9rique - 03/2020"}}, {"type": "node", "id": 477197147, "lat": 49.0107505, "lon": 2.0289161, "tags": {"addr:housenumber": "6 bis", "addr:street": "Rue Maurice Ravel", "name": "Proxi", "opening_hours": "Mo-Su,PH 10:00-22:00", "shop": "convenience", "source": "cadastre-dgi-fr source : Direction G\u00e9n\u00e9rale des Imp\u00f4ts - Cadastre. Mise \u00e0 jour : 2009"}}, {"type": "node", "id": 477205242, "lat": 48.8771503, "lon": 2.4022052, "tags": {"brand": "Franprix", "brand:wikidata": "Q2420096", "brand:wikipedia": "fr:Franprix", "name": "Franprix", "opening_hours": "Mo-Sa 07:30-22:00; Su 09:00-20:00", "operator": "Groupe Casino", "shop": "convenience", "website": "https://www.franprix.fr/magasins/6242"}}, {"type": "node", "id": 477205243, "lat": 48.8764269, "lon": 2.4060295, "tags": {"brand": "Franprix", "brand:wikidata": "Q2420096", "brand:wikipedia": "fr:Franprix", "name": "Franprix", "opening_hours": "Mo-Su 09:00-20:45", "operator": "Groupe Casino", "shop": "convenience", "website": "https://www.franprix.fr/magasins/5245"}}, {"type": "node", "id": 481299380, "lat": 48.9067455, "lon": 2.2448299}, {"type": "node", "id": 495029888, "lat": 49.1566494, "lon": 2.444165}, {"type": "node", "id": 501568749, "lat": 48.886576, "lon": 2.1559335, "tags": {"addr:city": "Chatou", "addr:housenumber": "5", "addr:postcode": "78400", "addr:street": "Place Maurice Berteaux", "brand": "Super U", "brand:wikidata": "Q2529029", "brand:wikipedia": "en:Syst\u00e8me U", "check_date": "2026-03-04", "internet_access": "no", "name": "Super U", "opening_hours": "Mo-Sa 08:00-21:00; Su 09:00-13:00", "operator": "Super U", "payment:cash": "yes", "payment:credit_cards": "yes", "payment:debit_cards": "yes", "phone": "+33134809696", "shop": "supermarket", "website": "https://www.magasins-u.com/magasin/superu-chatou.m21635", "wheelchair": "yes"}}, {"type": "node", "id": 501570570, "lat": 48.9007043, "lon": 2.1575898, "tags": {"addr:floor": "0", "addr:housenumber": "39", "addr:street": "Boulevard Jean Jaur\u00e8s", "check_date": "2026-01-18", "level": "0", "name": "Super Viniprix", "payment:cash": "yes", "payment:debit_cards": "yes", "shop": "convenience", "wheelchair": "yes"}}, {"type": "node", "id": 515154276, "lat": 48.8736501, "lon": 2.3851014, "tags": {"brand": "Carrefour City", "brand:wikidata": "Q2940187", "brand:wikipedia": "fr:Carrefour City", "check_date": "2024-08-10", "name": "Carrefour City", "opening_hours": "Mo-Sa 09:00-22:00; Su 09:00-20:00", "operator": "Groupe Carrefour", "operator:wikidata": "Q3117359", "operator:wikipedia": "fr:Groupe Carrefour", "shop": "convenience", "source": "survey", "website": "https://www.carrefour.fr/magasin/city-paris-belleville-88", "wheelchair": "yes"}}, {"type": "node", "id": 522033653, "lat": 48.9194058, "lon": 2.2672146, "tags": {"name": "Super AZ", "shop": "convenience"}}, {"type": "node", "id": 523275886, "lat": 48.8889267, "lon": 2.1950713, "tags": {"name": "CLG March\u00e9", "opening_hours": "Mo-Su 08:30-20:00", "shop": "convenience", "wheelchair": "yes"}}, {"type": "node", "id": 523275891, "lat": 48.8891267, "lon": 2.1943812, "tags": {"brand": "Franprix", "brand:wikidata": "Q2420096", "brand:wikipedia": "fr:Franprix", "name": "Franprix", "old_name": "Leader Express", "opening_hours": "Mo-Sa 08:30-21:00; Su 09:00-13:30", "operator": "Leader Price", "shop": "convenience", "wheelchair": "yes"}}, {"type": "node", "id": 524640861, "lat": 48.8894208, "lon": 2.1956202, "tags": {"level": "0", "name": "Z\u00e9ro Gaspi", "ref:FR:SIRET": "92176708300014", "shop": "convenience", "wheelchair": "yes"}}, {"type": "node", "id": 524640865, "lat": 48.889791, "lon": 2.1980349, "tags": {"brand": "Franprix", "brand:wikidata": "Q2420096", "brand:wikipedia": "fr:Franprix", "check_date": "2025-12-24", "name": "Franprix", "opening_hours": "Mo-Sa 08:30-20:00; Su 09:00-13:30", "operator": "Groupe Casino", "shop": "convenience", "source": "survey", "wheelchair": "yes"}}, {"type": "node", "id": 529282668, "lat": 48.9889037, "lon": 2.246103}, {"type": "node", "id": 529282669, "lat": 48.9889698, "lon": 2.2461478}, {"type": "node", "id": 529282670, "lat": 48.9892392, "lon": 2.2452507}, {"type": "node", "id": 529282672, "lat": 48.989304, "lon": 2.2452977}, {"type": "node", "id": 529282677, "lat": 48.9893959, "lon": 2.2450115}, {"type": "node", "id": 529282689, "lat": 48.988808, "lon": 2.2445795}, {"type": "node", "id": 529282693, "lat": 48.9887753, "lon": 2.2446758}, {"type": "node", "id": 529282699, "lat": 48.9877562, "lon": 2.2439236}, {"type": "node", "id": 529282707, "lat": 48.987521, "lon": 2.2438987}, {"type": "node", "id": 529282717, "lat": 48.9872685, "lon": 2.2447}, {"type": "node", "id": 529282721, "lat": 48.9874615, "lon": 2.2448405}, {"type": "node", "id": 538824804, "lat": 48.9893127, "lon": 2.2586219}, {"type": "node", "id": 538824807, "lat": 48.9893685, "lon": 2.2584403}, {"type": "node", "id": 540158326, "lat": 49.0495267, "lon": 2.0916374, "tags": {"name": "Rapid'Market", "opening_hours": "Mo-Su 08:30-21:30", "shop": "convenience"}}, {"type": "node", "id": 540290642, "lat": 49.0498246, "lon": 2.0913589, "tags": {"brand": "CocciMarket", "brand:wikidata": "Q17561658", "name": "CocciMarket", "shop": "convenience"}}, {"type": "node", "id": 544792471, "lat": 49.0490036, "lon": 2.0923163, "tags": {"organic": "only", "shop": "convenience"}}, {"type": "node", "id": 546475280, "lat": 48.8769023, "lon": 2.3218472, "tags": {"brand": "Franprix", "brand:wikidata": "Q2420096", "brand:wikipedia": "fr:Franprix", "check_date": "2024-07-15", "name": "Franprix", "opening_hours": "Mo-Sa 07:30-22:00; Su 09:00-12:00", "shop": "convenience", "website": "https://www.franprix.fr/magasins/4134", "wheelchair": "limited"}}, {"type": "node", "id": 546475287, "lat": 48.8744523, "lon": 2.3285538, "tags": {"brand": "Monoprix", "brand:wikidata": "Q3321241", "brand:wikipedia": "en:Monoprix", "check_date": "2025-03-04", "drink:club-mate": "bottled", "layer": "-1", "level": "-1", "name": "Monoprix", "opening_hours": "Mo-Sa 08:00-22:00; Su 10:00-20:00", "operator": "Groupe Casino", "payment:cash": "yes", "payment:coins": "yes", "payment:credit_cards": "yes", "phone": "+33 1 44 53 79 79", "shop": "supermarket", "website": "https://www.monoprix.fr/7.html", "wheelchair": "yes"}}, {"type": "node", "id": 546568803, "lat": 49.0520339, "lon": 2.0961946, "tags": {"shop": "convenience"}}, {"type": "node", "id": 546852300, "lat": 49.0325576, "lon": 2.0194552, "tags": {"shop": "convenience"}}, {"type": "node", "id": 548850510, "lat": 49.0544808, "lon": 2.0937717}, {"type": "node", "id": 548850532, "lat": 49.0543324, "lon": 2.0939229}, {"type": "node", "id": 548850546, "lat": 49.054622, "lon": 2.0946142}, {"type": "node", "id": 548850562, "lat": 49.0547761, "lon": 2.0944698}, {"type": "node", "id": 550179779, "lat": 49.0535766, "lon": 2.0938675, "tags": {"shop": "convenience"}}, {"type": "node", "id": 553304985, "lat": 48.9037936, "lon": 2.0840496, "tags": {"addr:housenumber": "130B", "addr:postcode": "78100", "addr:street": "Rue du Mar\u00e9chal Foch", "amenity": "fuel", "brand": "TotalEnergies", "brand:wikidata": "Q154037", "brand:wikipedia": "fr:Total (entreprise)", "compressed_air": "yes", "fuel:diesel": "yes", "fuel:e10": "yes", "fuel:octane_98": "yes", "name": "Total", "opening_hours": "24/7", "ref:FR:prix-carburants": "78175001", "shop": "convenience", "source": "Minist\u00e8re de l'Economie, de l'Industrie et du Num\u00e9rique - 03/2020", "toilets": "yes", "vending": "fuel", "vending_machine": "fuel"}}, {"type": "node", "id": 558937294, "lat": 49.050836, "lon": 2.0965076, "tags": {"check_date": "2025-03-19", "name": "STS March\u00e9", "shop": "convenience", "source": "cadastre-dgi-fr source : Direction G\u00e9n\u00e9rale des Imp\u00f4ts - Cadastre ; mise \u00e0 jour : 2009"}}, {"type": "node", "id": 560155715, "lat": 48.8890882, "lon": 2.2198405, "tags": {"brand": "Carrefour Market", "brand:wikidata": "Q2689639", "brand:wikipedia": "fr:Carrefour Market", "name": "Carrefour Market", "opening_hours": "Mo-Sa 08:30-20:30; Su 09:00-19:00", "operator": "Carrefour", "phone": "+33 1 47 21 73 33", "shop": "convenience", "website": "https://www.carrefour.fr/magasin/market-nanterre-picasso", "wheelchair": "yes"}}, {"type": "node", "id": 560799680, "lat": 49.0487548, "lon": 2.0960595, "tags": {"shop": "convenience", "source": "cadastre-dgi-fr source : Direction G\u00e9n\u00e9rale des Imp\u00f4ts - Cadastre ; mise \u00e0 jour : 2009"}}, {"type": "node", "id": 562971890, "lat": 49.0178495, "lon": 2.099353, "tags": {"branch": "\u00c9ragny", "brand": "Auchan Supermarch\u00e9", "brand:wikidata": "Q105857776", "name": "Auchan Supermarch\u00e9", "opening_hours": "Mo-Sa 08:30-20:00; Su 09:00-12:30", "shop": "supermarket"}}, {"type": "node", "id": 565064209, "lat": 48.9696197, "lon": 2.1943128, "tags": {"addr:city": "Cormeilles-en-Parisis", "addr:housenumber": "11", "addr:postcode": "95240", "addr:street": "Avenue Foch", "check_date:opening_hours": "2023-11-08", "name": "Alimentation genreale", "name:signed": "no", "opening_hours:signed": "no", "shop": "convenience"}}, {"type": "node", "id": 565629549, "lat": 48.9895499, "lon": 2.2625189, "tags": {"addr:city": "Ermont", "addr:housenumber": "32", "addr:postcode": "95120", "addr:street": "Rue de la Halte", "brand": "Franprix", "brand:wikidata": "Q2420096", "brand:wikipedia": "fr:Franprix", "name": "Franprix", "opening_hours": "Mo-Sa 08:00-21:30; Su 09:00-20:00", "phone": "+33 1 34 37 68 09", "ref:FR:SIRET": "97843779600011", "shop": "convenience", "website": "https://www.franprix.fr/magasins/4206"}}, {"type": "node", "id": 566742112, "lat": 48.8938762, "lon": 2.2476054, "tags": {"name": "GAM", "shop": "convenience"}}, {"type": "node", "id": 568812897, "lat": 48.9871829, "lon": 2.2574571}, {"type": "node", "id": 568812900, "lat": 48.9870756, "lon": 2.2573821}, {"type": "node", "id": 568812903, "lat": 48.9869643, "lon": 2.2577522}, {"type": "node", "id": 568812909, "lat": 48.9870715, "lon": 2.2578272}, {"type": "node", "id": 574952501, "lat": 48.8990327, "lon": 2.4837945, "tags": {"shop": "convenience"}}, {"type": "node", "id": 581704882, "lat": 48.8877119, "lon": 2.189373, "tags": {"amenity": "fuel", "brand": "TotalEnergies", "brand:wikidata": "Q154037", "brand:wikipedia": "fr:Total (entreprise)", "compressed_air": "yes", "fuel:diesel": "yes", "fuel:e10": "yes", "fuel:e85": "yes", "fuel:octane_98": "yes", "name": "TotalEnergies", "opening_hours": "24/7", "ref:FR:prix-carburants": "92000019", "shop": "convenience", "source": "survey", "vending": "fuel", "vending_machine": "fuel"}}, {"type": "node", "id": 582268950, "lat": 48.9902234, "lon": 2.2597426, "tags": {"addr:city": "Ermont", "addr:housenumber": "16", "addr:postcode": "95120", "addr:street": "Rue de l'\u00c9glise", "name": "Apple Bio", "opening_hours": "Mo-Fr 09:30-12:30, 15:30-19:30; Sa 09:30-13:00, 15:30-19:00", "organic": "yes", "phone": "+33 1 34 13 44 78", "shop": "convenience", "source": "survey", "website": "https://applebio95.com/"}}, {"type": "node", "id": 583417042, "lat": 48.9877149, "lon": 2.2440404}, {"type": "node", "id": 585395156, "lat": 48.9894606, "lon": 2.2571785, "tags": {"addr:city": "Ermont", "addr:housenumber": "13", "addr:postcode": "95120", "addr:street": "Rue du 18 Juin", "brand": "le march\u00e9 d'\u00e0 c\u00f4t\u00e9", "brand:wikidata": "Q130165186", "name": "le march\u00e9 d'\u00e0 c\u00f4t\u00e9", "opening_hours": "Mo-Su 10:00-22:00", "shop": "convenience", "source": "survey;survey 2023"}}, {"type": "node", "id": 596073783, "lat": 48.8926398, "lon": 2.3163584, "tags": {"brand": "Carrefour City", "brand:wikidata": "Q2940187", "brand:wikipedia": "fr:Carrefour City", "name": "Carrefour City", "opening_hours": "Mo-Sa 07:00-22:00; Su 09:00-13:00", "operator": "Groupe Carrefour", "operator:wikidata": "Q3117359", "operator:wikipedia": "fr:Groupe Carrefour", "phone": "+33 1 47 27 28 17", "shop": "convenience", "website": "https://www.carrefour.fr/magasin/city-paris-avenue-de-clichy", "wheelchair": "yes"}}, {"type": "node", "id": 596076650, "lat": 48.8893922, "lon": 2.3195945, "tags": {"brand": "G20", "brand:wikidata": "Q3504731", "brand:wikipedia": "fr:Supermarch\u00e9s G20", "check_date": "2024-04-17", "indoor": "yes", "level": "0", "name": "G20", "operator": "G20", "shop": "supermarket"}}, {"type": "node", "id": 596680683, "lat": 48.9064403, "lon": 2.2842369, "tags": {"addr:city": "Asni\u00e8res-sur-Seine", "addr:housenumber": "7", "addr:postcode": "92600", "addr:street": "Rue de la Station", "brand": "Monoprix", "brand:website": "https://www.monoprix.fr/", "brand:wikidata": "Q3321241", "brand:wikipedia": "fr:Monoprix (France)", "name": "Monoprix", "opening_hours": "Mo-Sa 08:30-22:00, Su 09:00-13:00", "phone": "+33 1 41 11 36 00", "ref:FR:SIRET": "55208329703113", "shop": "supermarket", "website": "https://www.monoprix.fr/1886.html", "wheelchair": "yes"}}, {"type": "node", "id": 597271657, "lat": 48.8893257, "lon": 2.3220647, "tags": {"brand": "Super U", "brand:wikidata": "Q2529029", "brand:wikipedia": "fr:Syst\u00e8me U", "check_date": "2024-04-29", "contact:website": "https://www.magasins-u.com/magasin/superu-parisavenuedeclichy", "name": "Super U", "opening_hours": "Mo-Sa 09:00-20:50; Su 09:00-19:50", "operator": "Super U", "phone": "+33 1 42 28 61 22", "shop": "supermarket"}}, {"type": "node", "id": 597489209, "lat": 48.9888584, "lon": 2.2592816, "tags": {"addr:city": "Ermont", "addr:housenumber": "8", "addr:postcode": "95120", "addr:street": "Rue de la R\u00e9publique", "name": "RO-ZE", "opening_hours": "Tu-Sa 09:30-12:30, 14:30-19:00", "payment:american_express": "yes", "payment:cash": "yes", "payment:mastercard": "yes", "payment:visa": "yes", "phone": "+33 1 30 72 43 63", "ref:FR:SIRET": "88767090900019", "shop": "convenience", "source": "survey 2019", "website": "https://www.ro-ze.fr/"}}, {"type": "node", "id": 599738045, "lat": 48.9729116, "lon": 1.9819822, "tags": {"brand": "Casino", "brand:wikidata": "Q2670967", "name": "Casino", "operator": "Casino", "shop": "convenience"}}, {"type": "node", "id": 599796542, "lat": 48.8940635, "lon": 2.3281241, "tags": {"brand": "Carrefour Market", "brand:wikidata": "Q2689639", "brand:wikipedia": "fr:Carrefour Market", "name": "Carrefour Market", "opening_hours": "Mo-Sa 08:30-22:00; Su 09:00-12:45,13:00-21:00", "operator": "Carrefour", "phone": "+33 1 42 63 73 43", "shop": "convenience", "website": "https://www.carrefour.fr/magasin/market-paris-saint-ouen"}}, {"type": "node", "id": 599956161, "lat": 48.8935528, "lon": 2.3274406, "tags": {"brand": "monop'", "brand:wikidata": "Q3321241", "brand:wikipedia": "fr:Monoprix (France)", "name": "monop'", "opening_hours": "08:00-22:00; Su off", "operator": "Monoprix", "phone": "+33 1 42 29 92 71", "shop": "supermarket", "website": "https://www.monoprix.fr/1820.html", "wheelchair": "yes"}}, {"type": "node", "id": 605019705, "lat": 48.9107645, "lon": 2.2211037, "tags": {"addr:city": "Nanterre", "addr:postcode": "92000", "addr:street": "Place des Muguets", "brand": "ALDI", "brand:wikidata": "Q41171373", "check_date": "2025-04-21", "name": "ALDI", "old_name": "ED;Dia", "opening_hours": "Mo-Sa 08:30-20:00; Su 08:30-12:30", "operator": "Aldi", "shop": "supermarket", "website": "https://www.aldi.fr/magasins-et-horaires-d-ouverture.html/l/nanterre/place-des-muguets/3435214", "wheelchair": "yes"}}, {"type": "node", "id": 605173628, "lat": 48.8816958, "lon": 2.2713245, "tags": {"brand": "Monoprix", "brand:wikidata": "Q3321241", "brand:wikipedia": "fr:Monoprix (France)", "name": "Monoprix", "opening_hours": "Mo-Sa 08:00-21:45; Su 08:00-19:45", "operator": "Groupe Casino", "shop": "supermarket", "source": "survey", "website": "https://www.monoprix.fr/751.html", "wheelchair": "limited"}}, {"type": "node", "id": 605199394, "lat": 48.883404, "lon": 2.288441, "tags": {"brand": "Franprix", "brand:wikidata": "Q2420096", "brand:wikipedia": "fr:Franprix", "name": "Franprix", "opening_hours": "Mo-Sa 08:30-22:00; Su 08:30-13:00", "operator": "Groupe Casino", "shop": "convenience", "source": "Survey", "wheelchair": "yes"}}, {"type": "node", "id": 605199830, "lat": 48.8848994, "lon": 2.2911875, "tags": {"brand": "Carrefour City", "brand:wikidata": "Q2940187", "brand:wikipedia": "fr:Carrefour City", "name": "Carrefour City", "opening_hours": "Mo-Sa 07:00-21:00", "operator": "Groupe Carrefour", "operator:wikidata": "Q3117359", "operator:wikipedia": "fr:Groupe Carrefour", "phone": "+33 1 44 40 41 26", "shop": "convenience", "website": "https://www.carrefour.fr/magasin/city-paris-laugier"}}, {"type": "node", "id": 608659887, "lat": 48.9961727, "lon": 2.2556216, "tags": {"brand": "Franprix", "brand:wikidata": "Q2420096", "brand:wikipedia": "fr:Franprix", "name": "Franprix", "opening_hours": "Mo-Sa 08:00-21:00; Su 08:00+", "operator": "Franprix", "shop": "convenience", "source": "survey"}}, {"type": "node", "id": 608848651, "lat": 48.8908056, "lon": 2.1950677, "tags": {"check_date": "2025-09-28", "description": "auparavant fut un magasin de Jouet", "name": "Les Pyramides", "old_name": "Grand Bazar Galeries de l'Ouest", "ref:FR:SIRET": "79443845700036", "shop": "convenience", "wheelchair": "yes"}}, {"type": "node", "id": 608913097, "lat": 48.8899119, "lon": 2.1951124, "tags": {"addr:housenumber": "9 bis", "addr:street": "Rue du March\u00e9", "brand": "Naturalia", "brand:wikidata": "Q3337081", "brand:wikipedia": "fr:Naturalia", "description": "Anciennement ce fut magasin \"Bazar du March\u00e9\"; Naturalia ouvert depuis 1 oct 2010", "name": "Naturalia", "opening_hours": "Mo-Sa 10:00-20:00; Su 09:30-13:00", "operator": "Groupe Casino", "organic": "only", "phone": "+33 1 46 95 53 16", "ref:FR:SIRET": "30247464800615", "shop": "supermarket", "source": "survey;knowledge", "website": "https://naturalia.fr/", "wheelchair": "yes"}}, {"type": "node", "id": 613219964, "lat": 48.9953728, "lon": 2.2543336, "tags": {"addr:city": "Ermont", "addr:housenumber": "29", "addr:postcode": "95120", "addr:street": "Rue du Stand", "name": "Boucherie d'Ermont", "phone": "+33 1 34 14 56 46", "shop": "convenience", "source": "survey"}}, {"type": "node", "id": 614273558, "lat": 48.9702492, "lon": 2.3062703, "tags": {"brand": "Monoprix", "brand:wikidata": "Q3321241", "brand:wikipedia": "en:Monoprix", "name": "Monoprix", "opening_hours": "Mo-Sa 08:00-20:05; Su 08:00-19:45", "operator": "Groupe Casino", "phone": "+33 1 34 12 74 30", "shop": "supermarket", "website": "https://www.monoprix.fr/35.html"}}, {"type": "node", "id": 614275190, "lat": 48.9695217, "lon": 2.3113522, "tags": {"addr:city": "Enghien-les-Bains", "addr:housenumber": "6", "addr:postcode": "95880", "addr:street": "Rue des \u00c9coles", "brand": "Intermarch\u00e9", "brand:wikidata": "Q3153200", "brand:wikipedia": "fr:Intermarch\u00e9", "name": "Intermarch\u00e9", "opening_hours": "Mo-Sa 09:00-20:00; Su 09:00-13:00", "operator": "Groupement des Mousquetaires", "shop": "supermarket"}}, {"type": "node", "id": 616578513, "lat": 48.8952644, "lon": 2.3398942, "tags": {"brand": "Franprix", "brand:wikidata": "Q2420096", "brand:wikipedia": "fr:Franprix", "name": "Franprix", "opening_hours": "Mo-Su 07:30-22:00", "operator": "Groupe Casino", "shop": "convenience", "website": "https://www.franprix.fr/magasins/6264"}}, {"type": "node", "id": 619525052, "lat": 48.8959279, "lon": 2.1964437, "tags": {"name": "Sup\u00e9rette de la Gare", "ref:FR:SIRET": "81327125100015", "shop": "convenience", "wheelchair": "no"}}, {"type": "node", "id": 619552730, "lat": 48.8942965, "lon": 2.1949787}, {"type": "node", "id": 619552731, "lat": 48.8942148, "lon": 2.1955428}, {"type": "node", "id": 619552732, "lat": 48.8942401, "lon": 2.1955508}, {"type": "node", "id": 619552733, "lat": 48.8942195, "lon": 2.1956778}, {"type": "node", "id": 619552734, "lat": 48.8942652, "lon": 2.1957832}, {"type": "node", "id": 619552735, "lat": 48.8944427, "lon": 2.1958388}, {"type": "node", "id": 619552736, "lat": 48.8945623, "lon": 2.1950615}, {"type": "node", "id": 619552737, "lat": 48.8945156, "lon": 2.1950462}, {"type": "node", "id": 619552738, "lat": 48.8945153, "lon": 2.1950486}, {"type": "node", "id": 622662690, "lat": 48.9963491, "lon": 2.2556421, "tags": {"name": "Ermont Exo", "shop": "convenience", "source": "survey"}}, {"type": "node", "id": 624902165, "lat": 48.8944942, "lon": 2.1954947}, {"type": "node", "id": 625967763, "lat": 48.8944246, "lon": 2.1950196}, {"type": "node", "id": 625967767, "lat": 48.8943359, "lon": 2.1949913}, {"type": "node", "id": 627857438, "lat": 48.8855549, "lon": 2.3755636, "tags": {"addr:city": "Paris", "addr:housenumber": "46bis", "addr:postcode": "75019", "addr:street": "Quai de la Loire", "branch": "Canal Bio", "brand": "Biocoop", "brand:wikidata": "Q2904039", "bulk_purchase": "yes", "check_date": "2026-03-29", "name": "Biocoop Canal Bio", "opening_hours": "Mo 12:00-20:00; Tu-Sa 10:00-20:00; Su off", "organic": "only", "payment:cash": "yes", "payment:credit_cards": "yes", "payment:debit_cards": "yes", "phone": "+33 1 42 06 44 44", "shop": "supermarket", "website": "https://www.biocoop.fr/ile-de-france/paris/PARIS-19E-ARRONDISSEMENT/CANAL-BIO", "wheelchair": "yes"}}, {"type": "node", "id": 629775176, "lat": 48.8814741, "lon": 2.3185412, "tags": {"addr:city": "Paris", "addr:housenumber": "53", "addr:postcode": "75008", "addr:street": "Boulevard des Batignolles", "check_date": "2025-11-08", "level": "0", "name": "Gastronomie Russe", "name:ru": "\u0413\u0430\u0441\u0442\u0440\u043e\u043d\u043e\u043c\u044a", "opening_hours": "Mo-Sa 10:00-20:00", "payment:cards": "yes", "payment:cash": "yes", "payment:credit_cards": "yes", "payment:debit_cards": "yes", "phone": "+33142931043", "ref:FR:NAF": "47.11B", "ref:FR:SIRET": "89313847900017", "ref:vatin": "FR66893138479", "shop": "convenience", "wheelchair": "no"}}, {"type": "node", "id": 634651570, "lat": 48.9671935, "lon": 2.2617464}, {"type": "node", "id": 634651571, "lat": 48.9672208, "lon": 2.2617509}, {"type": "node", "id": 634651572, "lat": 48.9672231, "lon": 2.2616354}, {"type": "node", "id": 634651573, "lat": 48.9670351, "lon": 2.2616036}, {"type": "node", "id": 634651574, "lat": 48.9670295, "lon": 2.2616519}, {"type": "node", "id": 634651576, "lat": 48.9668247, "lon": 2.2616053}, {"type": "node", "id": 634651585, "lat": 48.9671737, "lon": 2.2621265}, {"type": "node", "id": 634651586, "lat": 48.9668031, "lon": 2.2619782}, {"type": "node", "id": 637464371, "lat": 48.9038909, "lon": 2.3314231, "tags": {"brand": "Lidl", "brand:website": "http://www.lidl.fr", "brand:wikidata": "Q151954", "brand:wikipedia": "fr:Lidl", "name": "Lidl", "operator": "Lidl", "ref:FR:NAF": "47.11D", "ref:FR:SIREN": "343262622", "ref:FR:SIRET": "34326262209553", "shop": "supermarket"}}, {"type": "node", "id": 637464376, "lat": 48.9041025, "lon": 2.3314982, "tags": {"brand": "Naturalia", "brand:wikidata": "Q3337081", "brand:wikipedia": "fr:Naturalia", "cuisine": "chinese", "email": "saintouenperi@naturalia.fr", "name": "Naturalia", "opening_hours": "Mo-Sa 09:30-20:00; Su 09:00-12:45", "phone": "+33 1 40 11 45 25", "shop": "supermarket", "website": "https://magasins.naturalia.fr/naturalia/fr/store/france/ile-de-france/seine-saint-denis/st-ouen/saint-ouen-peri/3997"}}, {"type": "node", "id": 637464387, "lat": 48.9059002, "lon": 2.3315466, "tags": {"brand": "Monoprix", "brand:wikidata": "Q3321241", "brand:wikipedia": "en:Monoprix", "name": "Monoprix", "opening_hours": "Mo-Sa 08:00-22:00; Su 09:00-19:45", "operator": "Groupe Casino", "phone": "+33 1 40 12 12 70", "shop": "supermarket", "website": "https://www.monoprix.fr/37.html"}}, {"type": "node", "id": 640576211, "lat": 48.8911844, "lon": 2.1953346, "tags": {"addr:street": "Rue Maurice Thorez", "brand": "Carrefour City", "brand:wikidata": "Q2940187", "description": "Octobre 2010 ED devient DIA, puis fev 2016 devient Carrefour City", "name": "Carrefour City", "old_name": "Nature Loisirs;ED;DIA", "opening_hours": "Mo-Sa 07:00-22:00; Su 08:00-13:00", "operator": "SARL NEODISS", "phone": "+33 1 47 16 26 18", "ref:FR:SIRET": "79905596700035", "shop": "convenience", "short_name": "City", "source": "survey 2022;knowledge", "supermarket": "mini_market", "survey:date": "2022", "website": "https://www.carrefour.fr/magasin/city-nanterre-thorez", "wheelchair": "yes"}}, {"type": "node", "id": 640635597, "lat": 48.8868412, "lon": 2.2010241, "tags": {"name": "Alimentation G\u00e9n\u00e9rale", "ref:FR:SIRET": "50092443600016", "shop": "convenience", "source": "survey 2014"}}, {"type": "node", "id": 640684670, "lat": 48.8871367, "lon": 2.2083858, "tags": {"brand": "Lidl", "brand:website": "http://www.lidl.fr", "brand:wikidata": "Q151954", "brand:wikipedia": "en:Lidl", "name": "Lidl", "opening_hours": "Mo-Sa 08:30-20:00", "operator": "Lidl", "ref:FR:NAF": "47.11D", "ref:FR:SIREN": "343262622", "ref:FR:SIRET": "34326262216061", "shop": "supermarket", "wheelchair": "yes"}}, {"type": "node", "id": 641128686, "lat": 48.9309068, "lon": 2.3836322, "tags": {"addr:city": "La Courneuve", "addr:postcode": "93120", "addr:street": "Rue de Saint-Denis", "brand": "Aldi", "brand:wikidata": "Q41171373", "check_date": "2025-07-11", "name": "Aldi", "opening_hours": "Mo-Sa 08:30-20:00; Su 08:30-12:30", "phone": "+33 9 77 40 40 44", "shop": "supermarket", "website": "https://www.aldi.fr/magasins-et-horaires-d-ouverture.html/l/la-courneuve/1-15-rue-de-saint-denis/3435516"}}, {"type": "node", "id": 643755976, "lat": 48.9678972, "lon": 2.2844982, "tags": {"brand": "Carrefour Market", "brand:wikidata": "Q2689639", "brand:wikipedia": "fr:Carrefour Market", "name": "Carrefour Market", "opening_hours": "Mo-Sa 08:30-20:30; Su 09:00-13:00", "operator": "Carrefour", "phone": "+33 1 39 34 14 05", "shop": "supermarket", "source": "cadastre-dgi-fr source : Direction G\u00e9n\u00e9rale des Imp\u00f4ts - Cadastre. Mise \u00e0 jour : 2010", "website": "https://www.carrefour.fr/magasin/market-saint-gratien"}}, {"type": "node", "id": 652251289, "lat": 49.1181032, "lon": 2.4270999}, {"type": "node", "id": 652998634, "lat": 48.8938852, "lon": 2.1959093, "tags": {"addr:city": "Nanterre", "addr:housenumber": "60-62", "addr:postcode": "92000", "addr:street": "Rue Maurice Thorez", "brand": "Biocoop", "brand:wikidata": "Q2904039", "brand:wikipedia": "fr:Biocoop", "check_date": "2025-02-11", "name": "Biocoop", "note:fr": "Fut auparavant une poissonnerie, puis GMF", "old_office": "insurance", "old_shop": "seafood", "opening_hours": "Mo-Fr 08:30-20:00; Sa 10:00-20:00; Su 09:00-13:00", "organic": "only", "phone": "+33 1 41 47 08 32", "shop": "supermarket", "source": "survey 2020;knowledge", "wheelchair": "yes"}}, {"type": "node", "id": 658960147, "lat": 48.8763021, "lon": 2.3355074, "tags": {"brand": "Franprix", "brand:wikidata": "Q2420096", "brand:wikipedia": "fr:Franprix", "name": "Franprix", "opening_hours": "Mo-Sa 07:30-22:00; Su 09:00-13:00", "operator": "Groupe Casino", "shop": "convenience", "website": "https://www.franprix.fr/magasins/5689", "wheelchair": "limited"}}, {"type": "node", "id": 664200673, "lat": 48.9950345, "lon": 2.1982418, "tags": {"brand": "Carrefour", "brand:wikidata": "Q217599", "brand:wikipedia": "fr:Carrefour (enseigne)", "contact:housenumber": "66", "contact:street": "Boulevard Victor Bordier", "name": "Carrefour", "opening_hours": "Mo-Sa 08:30-21:30; Su 08:30-12:30", "operator": "Carrefour", "phone": "+33 1 39 31 97 79", "ref:FR:SIRET": "45132133501088", "shop": "supermarket", "website": "https://www.carrefour.fr/magasin/montigny-les-cormeilles", "wheelchair": "yes"}}, {"type": "node", "id": 664201538, "lat": 48.991145, "lon": 2.167464, "tags": {"name": "Rapid'Market", "shop": "convenience"}}, {"type": "node", "id": 664394910, "lat": 48.9915879, "lon": 2.1664097, "tags": {"brand": "Monoprix", "brand:wikidata": "Q3321241", "brand:wikipedia": "en:Monoprix", "name": "Monoprix", "opening_hours": "Mo-Sa 08:30-20:00; Su 08:30-12:45", "operator": "Groupe Casino", "phone": "+33 1 39 97 07 27", "shop": "supermarket", "website": "https://www.monoprix.fr/40.html"}}, {"type": "node", "id": 667342363, "lat": 48.873871, "lon": 2.3754889, "tags": {"addr:city": "Paris", "addr:housenumber": "2", "addr:postcode": "75019", "addr:street": "Rue R\u00e9beval", "check_date": "2025-06-22", "diet:halal": "no", "diet:kosher": "no", "name": "Wing Seng", "opening_hours:signed": "no", "payment:apple_pay": "yes", "payment:cards": "yes", "payment:cash": "yes", "phone": "+33 142419778", "ref:FR:SIRET": "32818666300014", "shop": "supermarket", "wheelchair": "yes"}}, {"type": "node", "id": 667342372, "lat": 48.8722964, "lon": 2.376306, "tags": {"brand": "Paris Store", "check_date": "2025-06-22", "check_date:opening_hours": "2024-11-16", "contact:city": "Paris", "contact:housenumber": "3", "contact:postcode": "75010", "contact:street": "Boulevard de la Villette", "name": "Paris Store", "opening_hours": "Mo-Sa 09:00-19:40; Su 08:45-13:00", "origin": "asian", "phone": "+33 1 42 08 62 54", "ref:FR:SIRET": "35159988100015", "shop": "supermarket", "website": "https://www.paris-store.com", "wheelchair": "yes"}}, {"type": "node", "id": 667342374, "lat": 48.8727703, "lon": 2.3788139, "tags": {"addr:city": "Paris", "addr:housenumber": "19", "addr:postcode": "75019", "addr:street": "Rue de Belleville", "check_date:opening_hours": "2026-03-27", "name": "Les halles de l'Asie - \u65b0\u4eca\u65e5\u8d85\u5e02", "name:zh": "\u65b0\u4eca\u65e5\u8d85\u5e02", "opening_hours": "Mo 10:00-20:00; Tu-Su 08:30-20:00", "phone": "+33 1 42 38 18 98", "shop": "supermarket", "type": "chinese", "wheelchair": "yes"}}, {"type": "node", "id": 671472208, "lat": 48.8849482, "lon": 2.4002754, "tags": {"addr:postcode": "93310", "addr:street": "Rue Delteral", "brand": "Monoprix", "brand:wikidata": "Q3321241", "brand:wikipedia": "fr:Monoprix (France)", "name": "Monoprix", "name:en": "Monoprix Pr\u00e9 Saint Gervais", "name:fr": "Monoprix Pr\u00e9 Saint Gervais", "opening_hours": "Mo-Sa 08:30-21:30; Su 09:00-13:00", "operator": "Groupe Casino", "phone": "+33 1 41 83 76 00", "shop": "supermarket", "website": "https://www.monoprix.fr/1400.html"}}, {"type": "node", "id": 671784283, "lat": 48.9910129, "lon": 2.2904602, "tags": {"addr:city": "Soisy-sous-Montmorency", "addr:housenumber": "2", "addr:postcode": "95230", "addr:street": "Avenue Mirabeau", "alt_name": "Monoprix Soisy", "brand": "Monoprix", "brand:wikidata": "Q3321241", "brand:wikipedia": "fr:Monoprix (France)", "name": "Monoprix", "opening_hours": "Mo-Sa 09:30-20:00", "operator": "Groupe Casino", "phone": "+33 1 39 89 39 28", "shop": "supermarket", "website": "https://www.monoprix.fr/monoprix-soisy--soisy-sous-montmorency-95230-s"}}, {"type": "node", "id": 671802148, "lat": 48.9142691, "lon": 2.2745382, "tags": {"addr:city": "Asni\u00e8res-sur-Seine", "addr:housenumber": "76/78", "addr:postcode": "92600", "addr:street": "Rue des Bourguignons", "brand": "Monoprix", "brand:wikidata": "Q3321241", "brand:wikipedia": "fr:Monoprix (France)", "check_date": "2024-05-04", "name": "Monoprix", "opening_hours": "Mo-Sa 08:00-21:45; Su 09:00-19:45", "operator": "Groupe Casino", "phone": "+33 1 47 93 04 86", "shop": "supermarket", "website": "https://www.monoprix.fr/34.html"}}, {"type": "node", "id": 671803133, "lat": 48.9165493, "lon": 2.2905623, "tags": {"addr:postcode": "92600", "brand": "Intermarch\u00e9", "brand:wikidata": "Q3153200", "name": "Intermarch\u00e9", "opening_hours": "Mo-Su,PH 08:00-21:00", "operator": "Intermarch\u00e9", "outdoor_seating": "no", "shop": "supermarket"}}, {"type": "node", "id": 672842501, "lat": 48.8793624, "lon": 2.3337517, "tags": {"addr:city": "Paris", "addr:postcode": "75009", "check_date": "2024-07-23", "name": "Mini Market", "shop": "convenience", "source": "cadastre-dgi-fr source : Direction G\u00e9n\u00e9rale des Imp\u00f4ts - Cadastre. Mise \u00e0 jour : 2010"}}, {"type": "node", "id": 672973035, "lat": 48.8782, "lon": 2.33235, "tags": {"addr:city": "Paris", "addr:housenumber": "8", "addr:postcode": "75009", "addr:street": "Rue Jean-Baptiste Pigalle", "brand": "Franprix", "brand:wikidata": "Q2420096", "brand:wikipedia": "fr:Franprix", "name": "Franprix", "opening_hours": "Mo-Sa 07:30-21:30", "operator": "Groupe Casino", "payment:cash": "yes", "payment:credit_cards": "yes", "phone": "+33 1 40 16 98 97", "shop": "convenience", "source": "cadastre-dgi-fr source : Direction G\u00e9n\u00e9rale des Imp\u00f4ts - Cadastre. Mise \u00e0 jour : 2010", "website": "https://www.franprix.fr/magasins/5661", "wheelchair": "yes"}}, {"type": "node", "id": 685538567, "lat": 48.8759602, "lon": 2.3823956, "tags": {"addr:city": "Paris", "addr:housenumber": "24", "addr:postcode": "75019", "addr:street": "Rue Pradier", "brand": "Franprix", "brand:wikidata": "Q2420096", "brand:wikipedia": "fr:Franprix", "name": "Franprix", "opening_hours": "Mo-Su 09:00-21:00", "operator": "Groupe Casino", "ref:FR:SIRET": "34101486800010", "shop": "convenience", "website": "https://www.franprix.fr/magasins/5247"}}, {"type": "node", "id": 697235879, "lat": 48.9556142, "lon": 2.4769116, "tags": {"addr:postcode": "93600", "alt_name": "Atacad\u00e3o Aulnay-sous-Bois", "brand": "Atacad\u00e3o", "brand:wikidata": "Q2868739", "name": "Atacad\u00e3o", "not:brand:wikidata": "Q217599", "opening_hours": "Mo-Sa 08:30-21:00; Su 08:30-12:30", "operator": "Carrefour", "phone": "+33 1 48 14 76 79", "shop": "supermarket", "website": "https://www.carrefour.fr/magasin/aulnay-sous-bois"}}, {"type": "node", "id": 701576691, "lat": 48.8947778, "lon": 2.1932397, "tags": {"name": "Superette", "opening_hours": "Mo-Su 08:30-13:30,15:00-23:00", "phone": "+33147211720", "shop": "convenience", "source": "survey", "wheelchair": "no"}}, {"type": "node", "id": 702998964, "lat": 48.8807366, "lon": 2.0961678, "tags": {"addr:housenumber": "2", "addr:postcode": "78230", "addr:street": "Avenue des Vignes-Benettes", "name": "Diagonal", "old_name": "Franprix", "opening_hours": "Mo-Su 08:30-22:00", "shop": "convenience"}}, {"type": "node", "id": 704814548, "lat": 48.9915711, "lon": 2.1678773, "tags": {"addr:city": "Herblay-sur-Seine", "addr:housenumber": "15", "addr:postcode": "95220", "addr:street": "Rue de Paris", "clothes": "women", "name": "Hyp\u00e9rion (\u00e9picerie roumaine)", "opening_hours": "Mo,Tu,Th-Su 09:30-12:30,14:30-19:00; We 14:30-19:00", "phone": "+33130260656", "shop": "convenience"}}, {"type": "node", "id": 706373136, "lat": 48.9218013, "lon": 2.2772169, "tags": {"name": "Diagonal", "shop": "convenience"}}, {"type": "node", "id": 708830372, "lat": 48.8890983, "lon": 2.1831188, "tags": {"brand": "CocciMarket", "brand:wikidata": "Q90020480", "name": "CocciMarket", "operator": "Coccimarket", "shop": "convenience", "source": "survey"}}, {"type": "node", "id": 715165595, "lat": 48.8783342, "lon": 2.3857466, "tags": {"branch": "Buttes Chaumont - Paris", "brand": "Auchan Supermarch\u00e9", "brand:wikidata": "Q105857776", "check_date": "2025-03-30", "name": "Auchan Supermarch\u00e9", "opening_hours": "Mo-Sa 08:30-21:00; Su 08:30-12:30", "operator": "Auchan supermarch\u00e9", "shop": "supermarket", "wheelchair": "yes"}}, {"type": "node", "id": 722909195, "lat": 48.8851395, "lon": 2.1956996, "tags": {"brand": "Franprix", "brand:wikidata": "Q2420096", "brand:wikipedia": "fr:Franprix", "name": "Franprix", "operator": "Groupe Casino", "shop": "convenience"}}, {"type": "node", "id": 725097222, "lat": 48.871713, "lon": 2.368283, "tags": {"brand": "Franprix", "brand:wikidata": "Q2420096", "brand:wikipedia": "fr:Franprix", "check_date": "2025-06", "contact:city": "Paris", "contact:housenumber": "22", "contact:postcode": "75010", "contact:street": "Rue Alibert", "name": "Franprix", "opening_hours": "Mo-Sa 08:00-22:00; Su 09:00-22:00", "operator": "Groupe Casino", "payment:cash": "yes", "payment:credit_cards": "yes", "payment:debit_cards": "yes", "ref:FR:SIRET": "44982074500015", "shop": "convenience", "website": "https://www.franprix.fr/magasins/5487", "wheelchair": "limited"}}, {"type": "node", "id": 725232867, "lat": 48.8964774, "lon": 2.2080367, "tags": {"brand": "Intermarch\u00e9", "brand:wikidata": "Q3153200", "brand:wikipedia": "fr:Intermarch\u00e9", "name": "Intermarch\u00e9", "opening_hours": "Mo-Sa 09:00-19:45 ; Su 09:00-12:45", "operator": "Groupement des Mousquetaires", "shop": "supermarket", "wheelchair": "yes"}}, {"type": "node", "id": 735171983, "lat": 48.8808303, "lon": 2.3650793, "tags": {"brand": "Biocoop", "brand:wikidata": "Q2904039", "brand:wikipedia": "fr:Biocoop", "bulk_purchase": "yes", "check_date": "2026-02-24", "contact:city": "Paris", "contact:housenumber": "230", "contact:phone": "+33 1 40 18 00 82", "contact:postcode": "75010", "contact:street": "Rue du Faubourg Saint-Martin", "contact:website": "https://www.biocoop.fr/ile-de-france/paris/PARIS-10E-ARRONDISSEMENT/BIOCOOP-LE-PETIT-CANAL", "email": "contact@lepetitcanal.fr", "name": "Biocoop", "official_name": "Biocoop Le Petit Canal", "old_name": "CIC", "opening_hours": "Mo 16:00-20:00; Tu-Sa 10:00-20:00; Su 10:00-13:00", "organic": "only", "ref:FR:SIRET": "87906111700013", "shop": "supermarket", "wheelchair": "yes"}}, {"type": "node", "id": 735356172, "lat": 48.8799269, "lon": 2.3724859, "tags": {"brand": "Hypercacher", "brand:wikidata": "Q18746214", "brand:wikipedia": "fr:Hyper Cacher", "check_date": "2024-12-19", "diet:kosher": "only", "name": "Hypercacher", "shop": "supermarket"}}, {"type": "node", "id": 762810565, "lat": 48.9723423, "lon": 2.3096268, "tags": {"addr:city": "Enghien-les-Bains", "addr:housenumber": "9", "addr:postcode": "95880", "addr:street": "Rue du G\u00e9n\u00e9ral de Gaulle", "brand": "Franprix", "brand:wikidata": "Q2420096", "brand:wikipedia": "fr:Franprix", "name": "Franprix", "opening_hours": "Mo-Su 09:00-21:00", "operator": "Groupe Casino", "shop": "convenience", "website": "https://www.franprix.fr/magasins/5547"}}, {"type": "node", "id": 764417846, "lat": 48.9325127, "lon": 2.3064712}, {"type": "node", "id": 764417858, "lat": 48.9326251, "lon": 2.3062076}, {"type": "node", "id": 764417859, "lat": 48.9326367, "lon": 2.3064533}, {"type": "node", "id": 765923610, "lat": 48.9348823, "lon": 2.3332671, "tags": {"addr:city": "Villeneuve-la-Garenne", "addr:housenumber": "210", "addr:postcode": "92390", "addr:street": "Boulevard Gallieni", "brand": "Lidl", "brand:wikidata": "Q151954", "brand:wikipedia": "en:Lidl", "check_date": "2024-09-19", "name": "Lidl", "operator": "Lidl", "phone": "0800 90 03 43", "ref:FR:NAF": "47.11D", "ref:FR:SIREN": "343262622", "ref:FR:SIRET": "34326262224149", "shop": "supermarket", "source": "survey 2021", "website": "https://www.lidl.fr/"}}, {"type": "node", "id": 765945699, "lat": 48.9104413, "lon": 2.287496, "tags": {"brand": "Franprix", "brand:wikidata": "Q2420096", "name": "Franprix", "opening_hours": "Mo-Sa 08:00-22:00, Su 09:00-20:00", "operator": "Groupe Casino", "phone": "+33 1 81 93 53 21", "ref:FR:SIRET": "43249660200025", "shop": "supermarket", "website": "https://www.franprix.fr/magasins/5501"}}, {"type": "node", "id": 766532211, "lat": 48.8855543, "lon": 2.3653665, "tags": {"brand": "Franprix", "brand:wikidata": "Q2420096", "brand:wikipedia": "fr:Franprix", "check_date": "2025-08-24", "level": "0", "name": "Franprix", "opening_hours": "Mo-Sa 08:00-22:00, Su 09:00-22:00", "operator": "Groupe Casino", "organic": "yes", "shop": "convenience", "toilets": "no", "website": "https://www.franprix.fr/magasins/6769", "wheelchair": "yes"}}, {"type": "node", "id": 775875141, "lat": 48.8777945, "lon": 2.3400334, "tags": {"addr:city": "Paris", "addr:housenumber": "22", "addr:postcode": "75009", "addr:street": "Rue Choron", "brand": "Franprix", "brand:wikidata": "Q2420096", "brand:wikipedia": "fr:Franprix", "name": "Franprix", "opening_hours": "Mo-Sa 08:30-21:00", "operator": "Groupe Casino", "phone": "+33 9 70 17 12 00", "shop": "convenience", "source": "survey", "website": "https://www.franprix.fr/magasins/6273"}}, {"type": "node", "id": 779259074, "lat": 48.9379769, "lon": 2.3270796}, {"type": "node", "id": 779261457, "lat": 48.9376267, "lon": 2.3276968}, {"type": "node", "id": 779294800, "lat": 48.9380254, "lon": 2.327613}, {"type": "node", "id": 779329206, "lat": 48.9375781, "lon": 2.3271634}, {"type": "node", "id": 784381952, "lat": 48.8766706, "lon": 2.3586214}, {"type": "node", "id": 784441567, "lat": 48.880154, "lon": 2.3547318}, {"type": "node", "id": 784452777, "lat": 48.874219, "lon": 2.3636454, "tags": {"brand": "Franprix", "brand:wikidata": "Q2420096", "brand:wikipedia": "fr:Franprix", "check_date": "2025-10-02", "internet_access": "wlan", "internet_access:fee": "no", "name": "Franprix", "opening_hours": "Mo-Sa 07:30-22:00, Su 09:00-22:00", "ref:FR:SIRET": "47994345800022", "shop": "convenience", "source": "survey", "website": "https://www.franprix.fr/supermarket/1875", "wheelchair": "no"}}, {"type": "node", "id": 784562690, "lat": 48.8749726, "lon": 2.3887397}, {"type": "node", "id": 784567486, "lat": 48.8752284, "lon": 2.3887829}, {"type": "node", "id": 784568338, "lat": 48.8750916, "lon": 2.388507}, {"type": "node", "id": 784569153, "lat": 48.8752829, "lon": 2.3887642}, {"type": "node", "id": 784581193, "lat": 48.8753486, "lon": 2.3888727}, {"type": "node", "id": 784595533, "lat": 48.8753284, "lon": 2.38888}, {"type": "node", "id": 784596059, "lat": 48.8750407, "lon": 2.3881238}, {"type": "node", "id": 784598639, "lat": 48.8750981, "lon": 2.3881068}, {"type": "node", "id": 784603066, "lat": 48.8750496, "lon": 2.3883137}, {"type": "node", "id": 784607811, "lat": 48.8753288, "lon": 2.3888834}, {"type": "node", "id": 784610876, "lat": 48.8753106, "lon": 2.3888876}, {"type": "node", "id": 784621740, "lat": 48.875281, "lon": 2.3880782}, {"type": "node", "id": 784624076, "lat": 48.8751545, "lon": 2.3887439}, {"type": "node", "id": 784626029, "lat": 48.8748732, "lon": 2.3885444}, {"type": "node", "id": 784647879, "lat": 48.8750345, "lon": 2.3882378}, {"type": "node", "id": 784667123, "lat": 48.8750121, "lon": 2.3881315}, {"type": "node", "id": 784674376, "lat": 48.8752936, "lon": 2.3888399}, {"type": "node", "id": 784674556, "lat": 48.8750049, "lon": 2.3885228}, {"type": "node", "id": 784676146, "lat": 48.8751932, "lon": 2.3887287}, {"type": "node", "id": 784686881, "lat": 48.8751405, "lon": 2.3886679}, {"type": "node", "id": 784686886, "lat": 48.8753007, "lon": 2.3888905}, {"type": "node", "id": 784692412, "lat": 48.8752159, "lon": 2.3887198}, {"type": "node", "id": 784701666, "lat": 48.874947, "lon": 2.3887505}, {"type": "node", "id": 789404040, "lat": 48.9232517, "lon": 2.2948632}, {"type": "node", "id": 789404645, "lat": 48.932231, "lon": 2.3048125}, {"type": "node", "id": 789406158, "lat": 48.9328056, "lon": 2.304691}, {"type": "node", "id": 789406429, "lat": 48.9329525, "lon": 2.3048456}, {"type": "node", "id": 789408270, "lat": 48.9329949, "lon": 2.3048907}, {"type": "node", "id": 789408663, "lat": 48.9323853, "lon": 2.3047905}, {"type": "node", "id": 789409372, "lat": 48.9234864, "lon": 2.2951451}, {"type": "node", "id": 789410293, "lat": 48.9329339, "lon": 2.304813}, {"type": "node", "id": 789411631, "lat": 48.9329099, "lon": 2.3047837}, {"type": "node", "id": 789412059, "lat": 48.9259279, "lon": 2.2928887}, {"type": "node", "id": 789413463, "lat": 48.9324637, "lon": 2.3064783}, {"type": "node", "id": 789413909, "lat": 48.9322926, "lon": 2.3058284}, {"type": "node", "id": 789414784, "lat": 48.9255512, "lon": 2.2931298}, {"type": "node", "id": 789415446, "lat": 48.9233632, "lon": 2.2951614}, {"type": "node", "id": 789417868, "lat": 48.932807, "lon": 2.3047227}, {"type": "node", "id": 789418081, "lat": 48.932352, "lon": 2.3064831}, {"type": "node", "id": 789419039, "lat": 48.9250268, "lon": 2.2928821}, {"type": "node", "id": 789420080, "lat": 48.9255504, "lon": 2.293083}, {"type": "node", "id": 789420673, "lat": 48.925857, "lon": 2.2919195}, {"type": "node", "id": 789420718, "lat": 48.925021, "lon": 2.2924694}, {"type": "node", "id": 789422906, "lat": 48.9232097, "lon": 2.2950204}, {"type": "node", "id": 789423201, "lat": 48.9232112, "lon": 2.2950473}, {"type": "node", "id": 789423684, "lat": 48.9257629, "lon": 2.293123}, {"type": "node", "id": 789429769, "lat": 48.9323596, "lon": 2.306342}, {"type": "node", "id": 789429903, "lat": 48.9319444, "lon": 2.3056647}, {"type": "node", "id": 789431092, "lat": 48.9325924, "lon": 2.3047526}, {"type": "node", "id": 789431893, "lat": 48.9328768, "lon": 2.3047578}, {"type": "node", "id": 789433366, "lat": 48.9328104, "lon": 2.3046904}, {"type": "node", "id": 789433844, "lat": 48.9329886, "lon": 2.3057025}, {"type": "node", "id": 789435380, "lat": 48.9234949, "lon": 2.2948291}, {"type": "node", "id": 789438120, "lat": 48.9328885, "lon": 2.3060155}, {"type": "node", "id": 789438932, "lat": 48.9232189, "lon": 2.2951807}, {"type": "node", "id": 789439081, "lat": 48.9329827, "lon": 2.3049006}, {"type": "node", "id": 789439934, "lat": 48.9252161, "lon": 2.293141}, {"type": "node", "id": 789441105, "lat": 48.9232373, "lon": 2.2951782}, {"type": "node", "id": 789441355, "lat": 48.9252608, "lon": 2.2930881}, {"type": "node", "id": 789441644, "lat": 48.9259515, "lon": 2.2929099}, {"type": "node", "id": 789444196, "lat": 48.9252611, "lon": 2.2931392}, {"type": "node", "id": 789444647, "lat": 48.9329923, "lon": 2.3048838}, {"type": "node", "id": 789445405, "lat": 48.9330312, "lon": 2.3056954}, {"type": "node", "id": 789446361, "lat": 48.9322094, "lon": 2.3059845}, {"type": "node", "id": 789446572, "lat": 48.9329004, "lon": 2.3061834}, {"type": "node", "id": 789446951, "lat": 48.9251224, "lon": 2.2928807}, {"type": "node", "id": 789448622, "lat": 48.9259828, "lon": 2.2928379}, {"type": "node", "id": 789449893, "lat": 48.9232043, "lon": 2.2949312}, {"type": "node", "id": 789450400, "lat": 48.9329733, "lon": 2.3049002}, {"type": "node", "id": 789453060, "lat": 48.925827, "lon": 2.2931205}, {"type": "node", "id": 789453547, "lat": 48.932385, "lon": 2.3047819}, {"type": "node", "id": 789457156, "lat": 48.9250169, "lon": 2.2921445}, {"type": "node", "id": 789457364, "lat": 48.9251222, "lon": 2.2930939}, {"type": "node", "id": 789457718, "lat": 48.926125, "lon": 2.292386}, {"type": "node", "id": 789458672, "lat": 48.9259617, "lon": 2.2928124}, {"type": "node", "id": 789459809, "lat": 48.9324599, "lon": 2.3065134}, {"type": "node", "id": 789459835, "lat": 48.9318909, "lon": 2.3057731}, {"type": "node", "id": 789460948, "lat": 48.9328125, "lon": 2.3047329}, {"type": "node", "id": 789461562, "lat": 48.9330065, "lon": 2.3059982}, {"type": "node", "id": 789461841, "lat": 48.9235122, "lon": 2.2951415}, {"type": "node", "id": 789462198, "lat": 48.9233862, "lon": 2.2951584}, {"type": "node", "id": 789463509, "lat": 48.9329553, "lon": 2.304852}, {"type": "node", "id": 789506694, "lat": 48.9286306, "lon": 2.3534615}, {"type": "node", "id": 789512277, "lat": 48.9371244, "lon": 2.3539575}, {"type": "node", "id": 789513131, "lat": 48.9292009, "lon": 2.3530789}, {"type": "node", "id": 789514248, "lat": 48.9265238, "lon": 2.3668098}, {"type": "node", "id": 789515407, "lat": 48.9292295, "lon": 2.3532447}, {"type": "node", "id": 789516393, "lat": 48.929126, "lon": 2.3529569}, {"type": "node", "id": 789520904, "lat": 48.9371004, "lon": 2.353896}, {"type": "node", "id": 789529047, "lat": 48.9291793, "lon": 2.353861}, {"type": "node", "id": 789535537, "lat": 48.9290908, "lon": 2.3540256}, {"type": "node", "id": 789540120, "lat": 48.9369448, "lon": 2.3540111}, {"type": "node", "id": 789540913, "lat": 48.9291773, "lon": 2.3532649}, {"type": "node", "id": 789545149, "lat": 48.9265325, "lon": 2.3667983}, {"type": "node", "id": 789545294, "lat": 48.9292388, "lon": 2.3540485}, {"type": "node", "id": 789547646, "lat": 48.9371496, "lon": 2.3541172}, {"type": "node", "id": 789551408, "lat": 48.9371024, "lon": 2.3541187}, {"type": "node", "id": 789552903, "lat": 48.9371624, "lon": 2.3539861}, {"type": "node", "id": 789556074, "lat": 48.9290234, "lon": 2.352723}, {"type": "node", "id": 789568745, "lat": 48.9290841, "lon": 2.3527152}, {"type": "node", "id": 789569022, "lat": 48.9266544, "lon": 2.3669817}, {"type": "node", "id": 789569861, "lat": 48.9263071, "lon": 2.3671838}, {"type": "node", "id": 789587243, "lat": 48.9371531, "lon": 2.3540819}, {"type": "node", "id": 789590165, "lat": 48.9292157, "lon": 2.3539061}, {"type": "node", "id": 789591535, "lat": 48.9369443, "lon": 2.3539246}, {"type": "node", "id": 789591753, "lat": 48.9292096, "lon": 2.3531297}, {"type": "node", "id": 789592244, "lat": 48.9291856, "lon": 2.3541413}, {"type": "node", "id": 789597603, "lat": 48.9264856, "lon": 2.3674478}, {"type": "node", "id": 789598484, "lat": 48.9369466, "lon": 2.3541489}, {"type": "node", "id": 789614144, "lat": 48.9292548, "lon": 2.3537209}, {"type": "node", "id": 789618312, "lat": 48.9291762, "lon": 2.352938}, {"type": "node", "id": 789619969, "lat": 48.9291807, "lon": 2.3529631}, {"type": "node", "id": 789620721, "lat": 48.9371659, "lon": 2.3539491}, {"type": "node", "id": 790027756, "lat": 48.8758732, "lon": 2.3241047}, {"type": "node", "id": 790027831, "lat": 48.8758662, "lon": 2.3241069}, {"type": "node", "id": 793843629, "lat": 48.8927204, "lon": 2.2772293}, {"type": "node", "id": 793847032, "lat": 48.8929299, "lon": 2.2770381}, {"type": "node", "id": 793847732, "lat": 48.8929277, "lon": 2.2770324}, {"type": "node", "id": 793856653, "lat": 48.8932194, "lon": 2.2776605}, {"type": "node", "id": 794784847, "lat": 49.0181652, "lon": 2.1122663, "tags": {"shop": "convenience"}}, {"type": "node", "id": 795265272, "lat": 48.9061688, "lon": 2.2450412}, {"type": "node", "id": 795265714, "lat": 48.9066972, "lon": 2.2448162}, {"type": "node", "id": 795266102, "lat": 48.9061861, "lon": 2.2449392}, {"type": "node", "id": 795266330, "lat": 48.9063761, "lon": 2.2455614}, {"type": "node", "id": 795266677, "lat": 48.9061643, "lon": 2.2446665}, {"type": "node", "id": 795266989, "lat": 48.9061948, "lon": 2.2450938}, {"type": "node", "id": 795267235, "lat": 48.9061796, "lon": 2.244727}, {"type": "node", "id": 795267600, "lat": 48.9061951, "lon": 2.2450991}, {"type": "node", "id": 795267775, "lat": 48.9061916, "lon": 2.2450372}, {"type": "node", "id": 795268162, "lat": 48.9066419, "lon": 2.2456356}, {"type": "node", "id": 795268466, "lat": 48.906354, "lon": 2.2445819}, {"type": "node", "id": 795269156, "lat": 48.9061828, "lon": 2.2448805}, {"type": "node", "id": 795269324, "lat": 48.9063107, "lon": 2.2446175}, {"type": "node", "id": 795270257, "lat": 48.9062917, "lon": 2.2445213}, {"type": "node", "id": 795270732, "lat": 48.9061729, "lon": 2.2450967}, {"type": "node", "id": 795270779, "lat": 48.9062259, "lon": 2.2451073}, {"type": "node", "id": 795270938, "lat": 48.9063087, "lon": 2.2446094}, {"type": "node", "id": 795271189, "lat": 48.906229, "lon": 2.244628}, {"type": "node", "id": 795271237, "lat": 48.906247, "lon": 2.2454853}, {"type": "node", "id": 795271778, "lat": 48.9061623, "lon": 2.2449538}, {"type": "node", "id": 795271832, "lat": 48.9062139, "lon": 2.2445675}, {"type": "node", "id": 795272572, "lat": 48.9063405, "lon": 2.2445646}, {"type": "node", "id": 795272578, "lat": 48.9063807, "lon": 2.2455237}, {"type": "node", "id": 795272931, "lat": 48.9061486, "lon": 2.2448998}, {"type": "node", "id": 795272949, "lat": 48.9061501, "lon": 2.2447432}, {"type": "node", "id": 795273888, "lat": 48.9065902, "lon": 2.2447862}, {"type": "node", "id": 795274773, "lat": 48.9062807, "lon": 2.2444817}, {"type": "node", "id": 795274918, "lat": 48.9063192, "lon": 2.2444593}, {"type": "node", "id": 795275001, "lat": 48.9063437, "lon": 2.2445471}, {"type": "node", "id": 795275486, "lat": 48.9063476, "lon": 2.2447186}, {"type": "node", "id": 795275531, "lat": 48.9062867, "lon": 2.2447015}, {"type": "node", "id": 797062903, "lat": 48.9260674, "lon": 2.0522346, "tags": {"addr:city": "Poissy", "addr:postcode": "78300", "brand": "Franprix", "brand:wikidata": "Q2420096", "brand:wikipedia": "fr:Franprix", "check_date": "2024-01-25", "name": "Franprix", "opening_hours": "Mo-Sa 08:00-20:00; Su 09:00-14:00", "operator": "Groupe Casino", "shop": "convenience", "website": "https://www.franprix.fr/magasins/4372"}}, {"type": "node", "id": 812361586, "lat": 48.9917342, "lon": 2.2475757, "tags": {"name": "V.T. Vagash", "shop": "convenience", "source": "survey 2023"}}, {"type": "node", "id": 814114800, "lat": 48.9236194, "lon": 2.2577948}, {"type": "node", "id": 814114910, "lat": 48.9236206, "lon": 2.257787}, {"type": "node", "id": 814115001, "lat": 48.923663, "lon": 2.2578068}, {"type": "node", "id": 814115105, "lat": 48.9235842, "lon": 2.2578281}, {"type": "node", "id": 814115170, "lat": 48.9236653, "lon": 2.2578442}, {"type": "node", "id": 814115182, "lat": 48.9235678, "lon": 2.258118}, {"type": "node", "id": 814115274, "lat": 48.9235589, "lon": 2.2578614}, {"type": "node", "id": 814115448, "lat": 48.923744, "lon": 2.258168}, {"type": "node", "id": 814115752, "lat": 48.923657, "lon": 2.2581432}, {"type": "node", "id": 814115818, "lat": 48.923591, "lon": 2.2577761}, {"type": "node", "id": 814115908, "lat": 48.9235784, "lon": 2.2578671}, {"type": "node", "id": 814116091, "lat": 48.9237475, "lon": 2.2578536}, {"type": "node", "id": 814116111, "lat": 48.9236347, "lon": 2.2577991}, {"type": "node", "id": 814116246, "lat": 48.9235106, "lon": 2.2578487}, {"type": "node", "id": 814116349, "lat": 48.9236676, "lon": 2.2578078}, {"type": "node", "id": 814116352, "lat": 48.923481, "lon": 2.2580932}, {"type": "node", "id": 814805814, "lat": 48.8743843, "lon": 2.3197499, "tags": {"addr:city": "Paris", "addr:housenumber": "26", "addr:postcode": "75008", "addr:street": "Rue d'Astorg", "air_conditioning": "yes", "branch": "Saint-Augustin", "brand": "Monoprix", "brand:wikidata": "Q3321241", "brand:wikipedia": "en:Monoprix", "check_date": "2024-09-15", "fax": "+33 1 40 98 00 39", "name": "Monoprix", "opening_hours": "Mo-Sa 08:00-20:45; Su 09:00-19:45", "operator": "Groupe Casino", "payment:cash": "yes", "payment:contactless": "yes", "payment:credit_cards": "yes", "payment:debit_cards": "yes", "payment:google_pay": "yes", "phone": "+33 1 40 98 00 30", "shop": "supermarket", "source": "survey", "website": "https://www.monoprix.fr/42.html"}}, {"type": "node", "id": 819529330, "lat": 48.921083, "lon": 2.2786962, "tags": {"brand": "CocciMarket", "brand:wikidata": "Q90020480", "name": "CocciMarket", "operator": "Cocci Market", "ref:FR:SIRET": "51083046600015", "shop": "convenience"}}, {"type": "node", "id": 821156677, "lat": 48.8909626, "lon": 2.2353347}, {"type": "node", "id": 821156751, "lat": 48.8906691, "lon": 2.2349106}, {"type": "node", "id": 821156764, "lat": 48.891151, "lon": 2.2355895}, {"type": "node", "id": 821156838, "lat": 48.8907799, "lon": 2.234712}, {"type": "node", "id": 821156856, "lat": 48.8909298, "lon": 2.2354405}, {"type": "node", "id": 821156919, "lat": 48.8906959, "lon": 2.2348634}, {"type": "node", "id": 821156948, "lat": 48.8911801, "lon": 2.2354962}, {"type": "node", "id": 821156999, "lat": 48.8907857, "lon": 2.2346994}, {"type": "node", "id": 822260731, "lat": 48.8993471, "lon": 2.2093034, "tags": {"name": "Sitis Market", "old_name": "Famiprix", "opening_hours": "Mo-Su 07:30-21:30", "operator": "Diapar", "shop": "supermarket", "source": "survey;knowledge"}}, {"type": "node", "id": 822951255, "lat": 48.8772158, "lon": 2.3147005, "tags": {"brand": "G20", "brand:wikidata": "Q3504731", "brand:wikipedia": "fr:Supermarch\u00e9s G20", "name": "G20", "opening_hours": "Mo-Sa 08:00-20:30; Su 08:30-20:30", "operator": "G20", "shop": "supermarket", "source": "cadastre-dgi-fr source : Direction G\u00e9n\u00e9rale des Imp\u00f4ts - Cadastre. Mise \u00e0 jour : 2010"}}, {"type": "node", "id": 823756245, "lat": 48.9238589, "lon": 2.2532235, "tags": {"brand": "Monoprix", "brand:wikidata": "Q3321241", "brand:wikipedia": "fr:Monoprix (France)", "name": "Monoprix", "opening_hours": "Mo-Sa 08:00-22:00; Su 09:00-20:00", "operator": "Groupe Casino", "phone": "+33 1 47 81 40 56", "ref:FR:SIRET": "69572190200192", "shop": "supermarket", "source": "survey", "website": "https://www.monoprix.fr/904.html", "wheelchair": "yes"}}, {"type": "node", "id": 825376895, "lat": 48.8799664, "lon": 2.2189873, "tags": {"brand": "le march\u00e9 d'\u00e0 c\u00f4t\u00e9", "brand:wikidata": "Q130165186", "name": "le march\u00e9 d'\u00e0 c\u00f4t\u00e9", "shop": "convenience", "source": "survey 2023"}}, {"type": "node", "id": 826993871, "lat": 48.8929561, "lon": 2.2384415}, {"type": "node", "id": 827018406, "lat": 48.8930374, "lon": 2.238488}, {"type": "node", "id": 828183958, "lat": 48.9708549, "lon": 2.2581702}, {"type": "node", "id": 828184057, "lat": 48.9710371, "lon": 2.2581521}, {"type": "node", "id": 828184214, "lat": 48.971267, "lon": 2.2585056}, {"type": "node", "id": 828184357, "lat": 48.9723982, "lon": 2.255968, "tags": {"addr:city": "Sannois", "addr:housenumber": "82", "addr:postcode": "95110", "addr:street": "Boulevard Charles de Gaulle", "branch": "Sannois", "brand": "G20", "brand:wikidata": "Q3504731", "name": "G20", "opening_hours": "Mo-Sa 08:30-21:00; Su 08:30-13:00", "shop": "supermarket", "source": "survey", "survey:date": "2025-03-22"}}, {"type": "node", "id": 828184404, "lat": 48.9709858, "lon": 2.2586227}, {"type": "node", "id": 828184785, "lat": 48.9711175, "lon": 2.2577887}, {"type": "node", "id": 828184984, "lat": 48.9707786, "lon": 2.2584585}, {"type": "node", "id": 828185007, "lat": 48.9708766, "lon": 2.2580801}, {"type": "node", "id": 828185045, "lat": 48.9713508, "lon": 2.2582614}, {"type": "node", "id": 828185072, "lat": 48.9708091, "lon": 2.2583442}, {"type": "node", "id": 828185453, "lat": 48.9713258, "lon": 2.2583325}, {"type": "node", "id": 828185492, "lat": 48.97123, "lon": 2.2587212}, {"type": "node", "id": 828185682, "lat": 48.9709987, "lon": 2.2585454}, {"type": "node", "id": 828185718, "lat": 48.9710126, "lon": 2.2581394}, {"type": "node", "id": 828185794, "lat": 48.9710531, "lon": 2.2580832}, {"type": "node", "id": 828185931, "lat": 48.9713647, "lon": 2.2582726}, {"type": "node", "id": 828785017, "lat": 48.8707106, "lon": 2.3061618, "tags": {"brand": "Monoprix", "brand:wikidata": "Q3321241", "brand:wikipedia": "en:Monoprix", "contact:fax": "+33 1 53 77 65 69", "contact:housenumber": "52", "contact:phone": "+33 1 53 77 65 65", "contact:street": "Avenue des Champs-\u00c9lys\u00e9es", "name": "Monoprix", "opening_hours": "Mo-Sa 09:00-00:00; Su 10:00-22:00", "operator": "Groupe Casino", "shop": "supermarket", "website": "https://www.monoprix.fr/39.html", "wheelchair": "yes"}}, {"type": "node", "id": 829051438, "lat": 48.8708827, "lon": 2.3072093}, {"type": "node", "id": 829051450, "lat": 48.8709895, "lon": 2.3068634}, {"type": "node", "id": 829051505, "lat": 48.8708704, "lon": 2.3069782}, {"type": "node", "id": 829051650, "lat": 48.8708938, "lon": 2.3069551}, {"type": "node", "id": 829051696, "lat": 48.8711884, "lon": 2.3069092}, {"type": "node", "id": 829051704, "lat": 48.8709723, "lon": 2.30688}, {"type": "node", "id": 829051718, "lat": 48.8710788, "lon": 2.3067774}, {"type": "node", "id": 829051736, "lat": 48.8708102, "lon": 2.3070362}, {"type": "node", "id": 829051758, "lat": 48.8711165, "lon": 2.3067401}, {"type": "node", "id": 829051904, "lat": 48.8708092, "lon": 2.3070369}, {"type": "node", "id": 829894143, "lat": 48.872735, "lon": 2.3435478}, {"type": "node", "id": 829894284, "lat": 48.8728993, "lon": 2.3434023}, {"type": "node", "id": 829896384, "lat": 48.8728808, "lon": 2.3435963}, {"type": "node", "id": 829896463, "lat": 48.8727529, "lon": 2.3434177}, {"type": "node", "id": 829899139, "lat": 48.8727781, "lon": 2.34323}, {"type": "node", "id": 829899422, "lat": 48.8729196, "lon": 2.3431927}, {"type": "node", "id": 829900157, "lat": 48.8728865, "lon": 2.3435355}, {"type": "node", "id": 836331606, "lat": 48.8715883, "lon": 2.3988999}, {"type": "node", "id": 836333932, "lat": 48.8716088, "lon": 2.3987531}, {"type": "node", "id": 836335500, "lat": 48.8717835, "lon": 2.3988001}, {"type": "node", "id": 836336205, "lat": 48.8717474, "lon": 2.3986812}, {"type": "node", "id": 836337493, "lat": 48.8716077, "lon": 2.3989621}, {"type": "node", "id": 836337711, "lat": 48.8716969, "lon": 2.399049}, {"type": "node", "id": 836338068, "lat": 48.871616, "lon": 2.3989549}, {"type": "node", "id": 836338106, "lat": 48.8715665, "lon": 2.3987944}, {"type": "node", "id": 836339094, "lat": 48.8717371, "lon": 2.3986474}, {"type": "node", "id": 836342056, "lat": 48.8717002, "lon": 2.3990659}, {"type": "node", "id": 836345981, "lat": 48.8715924, "lon": 2.3986995}, {"type": "node", "id": 836346151, "lat": 48.8716935, "lon": 2.3990496}, {"type": "node", "id": 836347182, "lat": 48.8717362, "lon": 2.3986524}, {"type": "node", "id": 836348162, "lat": 48.8715655, "lon": 2.3987926}, {"type": "node", "id": 836349512, "lat": 48.871696, "lon": 2.3990443}, {"type": "node", "id": 836354035, "lat": 48.871804, "lon": 2.3991044}, {"type": "node", "id": 836354866, "lat": 48.8716075, "lon": 2.3987534}, {"type": "node", "id": 836356436, "lat": 48.8716602, "lon": 2.3989178}, {"type": "node", "id": 836356715, "lat": 48.8718638, "lon": 2.3990648}, {"type": "node", "id": 836359373, "lat": 48.8717316, "lon": 2.3986564}, {"type": "node", "id": 836360596, "lat": 48.8717906, "lon": 2.3990588}, {"type": "node", "id": 836362175, "lat": 48.8717079, "lon": 2.3990366}, {"type": "node", "id": 836362806, "lat": 48.8716145, "lon": 2.3989518}, {"type": "node", "id": 836362901, "lat": 48.87156, "lon": 2.398796}, {"type": "node", "id": 836368825, "lat": 48.8716942, "lon": 2.3990631}, {"type": "node", "id": 836373329, "lat": 48.8716983, "lon": 2.399062}, {"type": "node", "id": 836375453, "lat": 48.8717098, "lon": 2.3985984}, {"type": "node", "id": 836376825, "lat": 48.8716555, "lon": 2.3989205}, {"type": "node", "id": 836381904, "lat": 48.8717297, "lon": 2.3991011}, {"type": "node", "id": 836382108, "lat": 48.8717092, "lon": 2.3991154}, {"type": "node", "id": 836382359, "lat": 48.8717349, "lon": 2.3986487}, {"type": "node", "id": 836389584, "lat": 48.8717135, "lon": 2.3990569}, {"type": "node", "id": 836389825, "lat": 48.8716774, "lon": 2.3989683}, {"type": "node", "id": 836400744, "lat": 48.8716723, "lon": 2.3989746}, {"type": "node", "id": 836411514, "lat": 48.8716086, "lon": 2.3987594}, {"type": "node", "id": 836414112, "lat": 48.8716534, "lon": 2.3989176}, {"type": "node", "id": 837658603, "lat": 48.9503099, "lon": 2.3277233}, {"type": "node", "id": 837660504, "lat": 48.9508529, "lon": 2.327678}, {"type": "node", "id": 837662490, "lat": 48.9581358, "lon": 2.3287471}, {"type": "node", "id": 837663079, "lat": 48.9586952, "lon": 2.2883957}, {"type": "node", "id": 837663274, "lat": 48.9539179, "lon": 2.3336948}, {"type": "node", "id": 837664576, "lat": 48.9540646, "lon": 2.3335062}, {"type": "node", "id": 837664687, "lat": 48.9507197, "lon": 2.3276107}, {"type": "node", "id": 837666020, "lat": 48.9539275, "lon": 2.3337299}, {"type": "node", "id": 837669262, "lat": 48.9540164, "lon": 2.3333805}, {"type": "node", "id": 837673157, "lat": 48.9510629, "lon": 2.3277804}, {"type": "node", "id": 837675453, "lat": 48.9532405, "lon": 2.3336182}, {"type": "node", "id": 837675482, "lat": 48.9584413, "lon": 2.2887728}, {"type": "node", "id": 837678081, "lat": 48.9585272, "lon": 2.2888023}, {"type": "node", "id": 837678237, "lat": 48.9506323, "lon": 2.3275677}, {"type": "node", "id": 837681922, "lat": 48.9508031, "lon": 2.327962}, {"type": "node", "id": 837682133, "lat": 48.9505548, "lon": 2.3279296}, {"type": "node", "id": 837688150, "lat": 48.9539967, "lon": 2.3334142}, {"type": "node", "id": 837689227, "lat": 48.9539278, "lon": 2.333723}, {"type": "node", "id": 837689841, "lat": 48.9538799, "lon": 2.3337598}, {"type": "node", "id": 837697922, "lat": 48.9532377, "lon": 2.333685}, {"type": "node", "id": 837700717, "lat": 48.9539045, "lon": 2.3337594}, {"type": "node", "id": 837703350, "lat": 48.9508796, "lon": 2.3276907}, {"type": "node", "id": 837703917, "lat": 48.9585708, "lon": 2.2883927}, {"type": "node", "id": 837704294, "lat": 48.9539214, "lon": 2.3337485}, {"type": "node", "id": 837708373, "lat": 48.9506418, "lon": 2.3275234}, {"type": "node", "id": 837709305, "lat": 48.95818, "lon": 2.3288233}, {"type": "node", "id": 837710635, "lat": 48.9585262, "lon": 2.2888992}, {"type": "node", "id": 837713659, "lat": 48.9536098, "lon": 2.333131}, {"type": "node", "id": 837715782, "lat": 48.9510517, "lon": 2.3280823}, {"type": "node", "id": 837718218, "lat": 48.9538992, "lon": 2.3337587}, {"type": "node", "id": 837719143, "lat": 48.9536379, "lon": 2.3330803}, {"type": "node", "id": 837720076, "lat": 48.9535445, "lon": 2.3340833}, {"type": "node", "id": 837722340, "lat": 48.9509702, "lon": 2.3277351}, {"type": "node", "id": 837723117, "lat": 48.9509198, "lon": 2.3277105}, {"type": "node", "id": 837723973, "lat": 48.9536836, "lon": 2.3339935}, {"type": "node", "id": 837726062, "lat": 48.9503771, "lon": 2.3273972}, {"type": "node", "id": 837728607, "lat": 48.953664, "lon": 2.3331153}, {"type": "node", "id": 837729162, "lat": 48.9538869, "lon": 2.3337474}, {"type": "node", "id": 837735838, "lat": 48.9539221, "lon": 2.3336874}, {"type": "node", "id": 837738339, "lat": 48.958478, "lon": 2.2888431}, {"type": "node", "id": 837743518, "lat": 48.9505635, "lon": 2.3278854}, {"type": "node", "id": 837743853, "lat": 48.9511011, "lon": 2.327799}, {"type": "node", "id": 837746562, "lat": 48.9505708, "lon": 2.3278495}, {"type": "node", "id": 837748073, "lat": 48.9539424, "lon": 2.3337144}, {"type": "node", "id": 837749302, "lat": 48.9537303, "lon": 2.3330012}, {"type": "node", "id": 837749329, "lat": 48.9506553, "lon": 2.3278906}, {"type": "node", "id": 837752420, "lat": 48.9508068, "lon": 2.3276548}, {"type": "node", "id": 837758533, "lat": 48.9584766, "lon": 2.2887736}, {"type": "node", "id": 837760029, "lat": 48.9534968, "lon": 2.3331751}, {"type": "node", "id": 837760853, "lat": 48.9539221, "lon": 2.3337005}, {"type": "node", "id": 837763693, "lat": 48.9505994, "lon": 2.3275036}, {"type": "node", "id": 837770911, "lat": 48.953847, "lon": 2.3337149}, {"type": "node", "id": 837772232, "lat": 48.9584774, "lon": 2.2888981}, {"type": "node", "id": 837775041, "lat": 48.9502935, "lon": 2.3278041}, {"type": "node", "id": 837786575, "lat": 48.953552, "lon": 2.3340936}, {"type": "node", "id": 837797573, "lat": 48.9584806, "lon": 2.2883905}, {"type": "node", "id": 837799712, "lat": 48.950817, "lon": 2.3276593}, {"type": "node", "id": 837805666, "lat": 48.9511064, "lon": 2.3278017}, {"type": "node", "id": 837809377, "lat": 48.9532598, "lon": 2.3336436}, {"type": "node", "id": 837811842, "lat": 48.9539177, "lon": 2.3337531}, {"type": "node", "id": 837813570, "lat": 48.9535884, "lon": 2.3331029}, {"type": "node", "id": 837814701, "lat": 48.9535479, "lon": 2.3341001}, {"type": "node", "id": 837846659, "lat": 48.9536353, "lon": 2.3339285}, {"type": "node", "id": 837857166, "lat": 48.9539239, "lon": 2.3337434}, {"type": "node", "id": 837873240, "lat": 48.9538909, "lon": 2.3337531}, {"type": "node", "id": 837880194, "lat": 48.9584405, "lon": 2.2888422}, {"type": "node", "id": 837888404, "lat": 48.9539263, "lon": 2.3337119}, {"type": "node", "id": 837903841, "lat": 48.9539098, "lon": 2.3337586}, {"type": "node", "id": 837904423, "lat": 48.9504709, "lon": 2.3274416}, {"type": "node", "id": 837915763, "lat": 48.9511134, "lon": 2.3278058}, {"type": "node", "id": 837928215, "lat": 48.950669, "lon": 2.3275856}, {"type": "node", "id": 839194941, "lat": 48.9668353, "lon": 2.2618856}, {"type": "node", "id": 839195146, "lat": 48.9668742, "lon": 2.2618924}, {"type": "node", "id": 839196935, "lat": 48.9668185, "lon": 2.2616945}, {"type": "node", "id": 839197526, "lat": 48.9670106, "lon": 2.2616488}, {"type": "node", "id": 839197555, "lat": 48.9671804, "lon": 2.2620075}, {"type": "node", "id": 839197584, "lat": 48.966906, "lon": 2.2618444}, {"type": "node", "id": 839197690, "lat": 48.9669176, "lon": 2.2616726}, {"type": "node", "id": 839198002, "lat": 48.9668502, "lon": 2.2616623}, {"type": "node", "id": 839251058, "lat": 48.9409638, "lon": 2.229767}, {"type": "node", "id": 839257851, "lat": 48.957231, "lon": 2.2841013}, {"type": "node", "id": 839277451, "lat": 48.9570055, "lon": 2.2841146}, {"type": "node", "id": 839278572, "lat": 48.9404104, "lon": 2.2472552}, {"type": "node", "id": 839285113, "lat": 48.9572231, "lon": 2.2840712}, {"type": "node", "id": 839286737, "lat": 48.9330368, "lon": 2.2331805}, {"type": "node", "id": 839289179, "lat": 48.9570157, "lon": 2.2841783}, {"type": "node", "id": 839298133, "lat": 48.9573026, "lon": 2.28481}, {"type": "node", "id": 839311620, "lat": 48.9328597, "lon": 2.2338085}, {"type": "node", "id": 839314913, "lat": 48.9493502, "lon": 2.2523243}, {"type": "node", "id": 839317458, "lat": 48.9573987, "lon": 2.2847759}, {"type": "node", "id": 839320574, "lat": 48.9409922, "lon": 2.2298198}, {"type": "node", "id": 839321311, "lat": 48.9408396, "lon": 2.2468324}, {"type": "node", "id": 839348812, "lat": 48.957183, "lon": 2.2840505}, {"type": "node", "id": 839364678, "lat": 48.9572267, "lon": 2.28408}, {"type": "node", "id": 839366238, "lat": 48.9569872, "lon": 2.2841882}, {"type": "node", "id": 839369261, "lat": 48.9331719, "lon": 2.2334649}, {"type": "node", "id": 839373799, "lat": 48.9410973, "lon": 2.2300063}, {"type": "node", "id": 839409660, "lat": 48.9572166, "lon": 2.2840618}, {"type": "node", "id": 839414081, "lat": 48.9412567, "lon": 2.2294904}, {"type": "node", "id": 839415013, "lat": 48.9493541, "lon": 2.2533306}, {"type": "node", "id": 839420128, "lat": 48.941426, "lon": 2.2295836}, {"type": "node", "id": 839424111, "lat": 48.9490178, "lon": 2.2531859}, {"type": "node", "id": 839431392, "lat": 48.9410139, "lon": 2.2298579}, {"type": "node", "id": 839435383, "lat": 48.9493358, "lon": 2.2532782}, {"type": "node", "id": 839436586, "lat": 48.9404508, "lon": 2.2472115}, {"type": "node", "id": 839447948, "lat": 48.941325, "lon": 2.2294048}, {"type": "node", "id": 839451854, "lat": 48.9570774, "lon": 2.284775}, {"type": "node", "id": 839471275, "lat": 48.9571191, "lon": 2.2847602}, {"type": "node", "id": 839480112, "lat": 48.9406647, "lon": 2.2467853}, {"type": "node", "id": 839480737, "lat": 48.9571325, "lon": 2.284841}, {"type": "node", "id": 839487152, "lat": 48.9491946, "lon": 2.2523435}, {"type": "node", "id": 839491805, "lat": 48.9491904, "lon": 2.2524705}, {"type": "node", "id": 839497637, "lat": 48.9404283, "lon": 2.2472355}, {"type": "node", "id": 839510008, "lat": 48.9571947, "lon": 2.2840491}, {"type": "node", "id": 839510205, "lat": 48.941335, "lon": 2.229701}, {"type": "node", "id": 839513245, "lat": 48.957208, "lon": 2.2840543}, {"type": "node", "id": 839514670, "lat": 48.9493547, "lon": 2.2532797}, {"type": "node", "id": 839519359, "lat": 48.9492107, "lon": 2.2533268}, {"type": "node", "id": 839526389, "lat": 48.9327246, "lon": 2.2335241}, {"type": "node", "id": 839530427, "lat": 48.9490305, "lon": 2.2524687}, {"type": "node", "id": 839535316, "lat": 48.9408572, "lon": 2.2468652}, {"type": "node", "id": 839536220, "lat": 48.949192, "lon": 2.2523438}, {"type": "node", "id": 839548434, "lat": 48.9573346, "lon": 2.28434}, {"type": "node", "id": 839555547, "lat": 48.9412029, "lon": 2.2294635}, {"type": "node", "id": 839561940, "lat": 48.9403496, "lon": 2.2471319}, {"type": "node", "id": 839562970, "lat": 48.9491143, "lon": 2.253256}, {"type": "node", "id": 839572688, "lat": 48.9572712, "lon": 2.2843622}, {"type": "node", "id": 839573796, "lat": 48.9412339, "lon": 2.2295204}, {"type": "node", "id": 839584975, "lat": 48.9413819, "lon": 2.2295051}, {"type": "node", "id": 839585735, "lat": 48.9408146, "lon": 2.2472894}, {"type": "node", "id": 840927416, "lat": 48.8711514, "lon": 2.3068221, "tags": {"addr:housenumber": "107", "source": "cadastre-dgi-fr source : Direction G\u00e9n\u00e9rale des Imp\u00f4ts - Cadastre. Mise \u00e0 jour : 2010"}}, {"type": "node", "id": 843721648, "lat": 48.9104796, "lon": 2.2907379}, {"type": "node", "id": 843733144, "lat": 48.920611, "lon": 2.2831373}, {"type": "node", "id": 843734167, "lat": 48.9204835, "lon": 2.2832494}, {"type": "node", "id": 843736206, "lat": 48.920504, "lon": 2.2832848}, {"type": "node", "id": 843744881, "lat": 48.920804, "lon": 2.2829926}, {"type": "node", "id": 843745048, "lat": 48.9117224, "lon": 2.2940159}, {"type": "node", "id": 843758573, "lat": 48.917467, "lon": 2.3168588}, {"type": "node", "id": 843760275, "lat": 48.9169904, "lon": 2.2955433}, {"type": "node", "id": 843764907, "lat": 48.910353, "lon": 2.2905729}, {"type": "node", "id": 843766874, "lat": 48.9193434, "lon": 2.3142107}, {"type": "node", "id": 843768835, "lat": 48.9175183, "lon": 2.3169964}, {"type": "node", "id": 843773268, "lat": 48.9117714, "lon": 2.2941292}, {"type": "node", "id": 843774214, "lat": 48.9170234, "lon": 2.295406}, {"type": "node", "id": 843779938, "lat": 48.9118034, "lon": 2.2941854}, {"type": "node", "id": 843781536, "lat": 48.9100825, "lon": 2.2908979}, {"type": "node", "id": 843784206, "lat": 48.9151112, "lon": 2.2930639}, {"type": "node", "id": 843784975, "lat": 48.9175354, "lon": 2.3170277}, {"type": "node", "id": 843791262, "lat": 48.9152402, "lon": 2.2931545}, {"type": "node", "id": 843805713, "lat": 48.9151398, "lon": 2.2927948}, {"type": "node", "id": 843809038, "lat": 48.9117763, "lon": 2.2941341}, {"type": "node", "id": 843809600, "lat": 48.9206225, "lon": 2.2834899}, {"type": "node", "id": 843828170, "lat": 48.9104322, "lon": 2.2907827}, {"type": "node", "id": 843829087, "lat": 48.9120382, "lon": 2.2943424}, {"type": "node", "id": 843840555, "lat": 48.9205999, "lon": 2.2831189}, {"type": "node", "id": 843840614, "lat": 48.9117786, "lon": 2.2941314}, {"type": "node", "id": 843844540, "lat": 48.9104458, "lon": 2.29077}, {"type": "node", "id": 843849105, "lat": 48.9120455, "lon": 2.2943568}, {"type": "node", "id": 843865041, "lat": 48.9150682, "lon": 2.2930334}, {"type": "node", "id": 843871555, "lat": 48.9205774, "lon": 2.2834119}, {"type": "node", "id": 843873507, "lat": 48.9116872, "lon": 2.2940259}, {"type": "node", "id": 843878219, "lat": 48.9118035, "lon": 2.2941914}, {"type": "node", "id": 843880887, "lat": 48.9118889, "lon": 2.2943757}, {"type": "node", "id": 843881860, "lat": 48.9099763, "lon": 2.2909982}, {"type": "node", "id": 843891180, "lat": 48.9117703, "lon": 2.2941205}, {"type": "node", "id": 843899999, "lat": 48.9205156, "lon": 2.2829734}, {"type": "node", "id": 843902819, "lat": 48.9151102, "lon": 2.2928887}, {"type": "node", "id": 843909944, "lat": 48.9169818, "lon": 2.2954123}, {"type": "node", "id": 843923484, "lat": 48.9207479, "lon": 2.2833171}, {"type": "node", "id": 843924819, "lat": 48.9116561, "lon": 2.293959}, {"type": "node", "id": 843929462, "lat": 48.9170705, "lon": 2.2955311}, {"type": "node", "id": 843930078, "lat": 48.9117101, "lon": 2.2940191}, {"type": "node", "id": 843930993, "lat": 48.9105829, "lon": 2.2906411}, {"type": "node", "id": 843932579, "lat": 48.9151155, "lon": 2.2928925}, {"type": "node", "id": 843936358, "lat": 48.9208351, "lon": 2.2830448}, {"type": "node", "id": 843947253, "lat": 48.9170611, "lon": 2.2953872}, {"type": "node", "id": 843950058, "lat": 48.9206505, "lon": 2.2832056}, {"type": "node", "id": 843958114, "lat": 48.9098194, "lon": 2.2911459}, {"type": "node", "id": 843961527, "lat": 48.9104563, "lon": 2.2907599}, {"type": "node", "id": 843963473, "lat": 48.9099605, "lon": 2.2913807}, {"type": "node", "id": 843964328, "lat": 48.908844, "lon": 2.2741082}, {"type": "node", "id": 843965725, "lat": 48.9207104, "lon": 2.2831222}, {"type": "node", "id": 843976013, "lat": 48.9151717, "lon": 2.2928385}, {"type": "node", "id": 843982326, "lat": 48.9206838, "lon": 2.2831595}, {"type": "node", "id": 843995410, "lat": 48.9088822, "lon": 2.2738318}, {"type": "node", "id": 843998988, "lat": 48.9118018, "lon": 2.2941873}, {"type": "node", "id": 843999500, "lat": 48.9102752, "lon": 2.2904}, {"type": "node", "id": 844005531, "lat": 48.9151623, "lon": 2.2930997}, {"type": "node", "id": 844012696, "lat": 48.9206045, "lon": 2.2834586}, {"type": "node", "id": 844020003, "lat": 48.9120457, "lon": 2.2943298}, {"type": "node", "id": 844023006, "lat": 48.9087736, "lon": 2.2741789}, {"type": "node", "id": 844025739, "lat": 48.908855, "lon": 2.2740949}, {"type": "node", "id": 844030114, "lat": 48.9104971, "lon": 2.2907217}, {"type": "node", "id": 844040995, "lat": 48.9207915, "lon": 2.2832568}, {"type": "node", "id": 844041530, "lat": 48.9170226, "lon": 2.2953931}, {"type": "node", "id": 844042760, "lat": 48.9141496, "lon": 2.3002359}, {"type": "node", "id": 844057744, "lat": 48.9119952, "lon": 2.2942229}, {"type": "node", "id": 844063463, "lat": 48.9102432, "lon": 2.2906797}, {"type": "node", "id": 844065008, "lat": 48.9207415, "lon": 2.2831739}, {"type": "node", "id": 844078179, "lat": 48.9205029, "lon": 2.2832829}, {"type": "node", "id": 844079048, "lat": 48.9204071, "lon": 2.2831182}, {"type": "node", "id": 847213983, "lat": 49.0334918, "lon": 2.340304}, {"type": "node", "id": 858492879, "lat": 49.1251391, "lon": 2.2444326}, {"type": "node", "id": 858493577, "lat": 49.1250461, "lon": 2.2452816}, {"type": "node", "id": 858493843, "lat": 49.1262548, "lon": 2.2440361}, {"type": "node", "id": 858495150, "lat": 49.1255015, "lon": 2.245939}, {"type": "node", "id": 858497042, "lat": 49.1146104, "lon": 2.2283307}, {"type": "node", "id": 858498235, "lat": 49.1266045, "lon": 2.2448518}, {"type": "node", "id": 858500900, "lat": 49.1144012, "lon": 2.2291033}, {"type": "node", "id": 858500922, "lat": 49.1249413, "lon": 2.2449621}, {"type": "node", "id": 858501472, "lat": 49.1250079, "lon": 2.2452497}, {"type": "node", "id": 858501992, "lat": 49.114637, "lon": 2.2283075}, {"type": "node", "id": 858502634, "lat": 49.1252667, "lon": 2.2442368}, {"type": "node", "id": 858503078, "lat": 49.1253248, "lon": 2.2456964}, {"type": "node", "id": 858503094, "lat": 49.1257913, "lon": 2.2438203}, {"type": "node", "id": 858503217, "lat": 49.1259484, "lon": 2.243575}, {"type": "node", "id": 858505444, "lat": 49.1250014, "lon": 2.2452274}, {"type": "node", "id": 858506390, "lat": 49.125562, "lon": 2.2460294}, {"type": "node", "id": 858508452, "lat": 49.1253851, "lon": 2.2444076}, {"type": "node", "id": 858508489, "lat": 49.125262, "lon": 2.2441328}, {"type": "node", "id": 858510834, "lat": 49.1251909, "lon": 2.2443583}, {"type": "node", "id": 858512869, "lat": 49.1148579, "lon": 2.2292169}, {"type": "node", "id": 858513346, "lat": 49.1255534, "lon": 2.2437369}, {"type": "node", "id": 858514008, "lat": 49.1249856, "lon": 2.2451912}, {"type": "node", "id": 858515925, "lat": 49.1259002, "lon": 2.2436484}, {"type": "node", "id": 858516062, "lat": 49.1260825, "lon": 2.2437711}, {"type": "node", "id": 858516682, "lat": 49.1254946, "lon": 2.2459495}, {"type": "node", "id": 858517854, "lat": 49.1249513, "lon": 2.2449623}, {"type": "node", "id": 858519421, "lat": 49.1255165, "lon": 2.2460076}, {"type": "node", "id": 858520539, "lat": 49.1251622, "lon": 2.2443989}, {"type": "node", "id": 858527194, "lat": 49.1251806, "lon": 2.2444254}, {"type": "node", "id": 858527431, "lat": 49.1252062, "lon": 2.2443836}, {"type": "node", "id": 858535059, "lat": 49.1253327, "lon": 2.2440137}, {"type": "node", "id": 858539297, "lat": 49.125053, "lon": 2.2452711}, {"type": "node", "id": 858539696, "lat": 49.1250226, "lon": 2.2452588}, {"type": "node", "id": 858542971, "lat": 49.1255321, "lon": 2.2460167}, {"type": "node", "id": 858543542, "lat": 49.1255466, "lon": 2.246006}, {"type": "node", "id": 858549734, "lat": 49.1143947, "lon": 2.2291293}, {"type": "node", "id": 858550867, "lat": 49.1250079, "lon": 2.2452037}, {"type": "node", "id": 858551833, "lat": 49.125417, "lon": 2.2443568}, {"type": "node", "id": 858552225, "lat": 49.1249743, "lon": 2.2449968}, {"type": "node", "id": 858555885, "lat": 49.1248884, "lon": 2.2448685}, {"type": "node", "id": 858556422, "lat": 49.1255553, "lon": 2.2460399}, {"type": "node", "id": 858556497, "lat": 49.125038, "lon": 2.2452489}, {"type": "node", "id": 858556683, "lat": 49.1257202, "lon": 2.2462854}, {"type": "node", "id": 858556764, "lat": 49.1255103, "lon": 2.2459833}, {"type": "node", "id": 858562919, "lat": 49.1255414, "lon": 2.2437204}, {"type": "node", "id": 858563194, "lat": 49.1249197, "lon": 2.2449156}, {"type": "node", "id": 858563364, "lat": 49.1249114, "lon": 2.2449034}, {"type": "node", "id": 858563524, "lat": 49.125364, "lon": 2.2440566}, {"type": "node", "id": 858563848, "lat": 49.114634, "lon": 2.2282769}, {"type": "node", "id": 858570047, "lat": 49.1255561, "lon": 2.2436954}, {"type": "node", "id": 858572215, "lat": 49.124943, "lon": 2.2449501}, {"type": "node", "id": 858575955, "lat": 49.1258063, "lon": 2.2462555}, {"type": "node", "id": 858577383, "lat": 49.1265984, "lon": 2.2448557}, {"type": "node", "id": 858577763, "lat": 49.1256373, "lon": 2.2435952}, {"type": "node", "id": 858579098, "lat": 49.1248419, "lon": 2.2448185}, {"type": "node", "id": 858579888, "lat": 49.1262132, "lon": 2.2440952}, {"type": "node", "id": 858581397, "lat": 49.1251124, "lon": 2.2443947}, {"type": "node", "id": 858581947, "lat": 49.124919, "lon": 2.245092}, {"type": "node", "id": 858582971, "lat": 49.1145748, "lon": 2.2292356}, {"type": "node", "id": 858585592, "lat": 49.1249097, "lon": 2.244915}, {"type": "node", "id": 858591592, "lat": 49.1257722, "lon": 2.2462045}, {"type": "node", "id": 858592678, "lat": 49.1146331, "lon": 2.228275}, {"type": "node", "id": 858593518, "lat": 49.1266001, "lon": 2.2450167}, {"type": "node", "id": 858593656, "lat": 49.1252165, "lon": 2.2455351}, {"type": "node", "id": 858594023, "lat": 49.1249726, "lon": 2.2450088}, {"type": "node", "id": 858594064, "lat": 49.124879, "lon": 2.2448741}, {"type": "node", "id": 858596182, "lat": 49.1255681, "lon": 2.2437119}, {"type": "node", "id": 858598137, "lat": 49.1146274, "lon": 2.2283262}, {"type": "node", "id": 858598563, "lat": 49.1249926, "lon": 2.2451807}, {"type": "node", "id": 858599308, "lat": 49.114818, "lon": 2.2293757}, {"type": "node", "id": 858601877, "lat": 49.1255168, "lon": 2.245962},