{"version": 0.6, "generator": "Overpass API 0.7.62.11 87bfad18", "osm3s": {"timestamp_osm_base": "2026-04-21T17:42:42Z", "copyright": "The data included in this document is from www.openstreetmap.org. The data is made available under ODbL."}, "elements": [{"type": "node", "id": 25209161, "lat": 48.7805779, "lon": 2.1731752, "tags": {"addr:postcode": "78350", "address": "A 86 - Direction Versailles/Cr\u00e9teil, Aire de Clair Bois", "amenity": "fuel", "brand": "TotalEnergies", "brand:wikidata": "Q154037", "brand:wikipedia": "fr:TotalEnergies", "compressed_air": "yes", "fuel:diesel": "yes", "fuel:e10": "yes", "fuel:e85": "yes", "fuel:lpg": "yes", "fuel:octane_98": "yes", "name": "TotalEnergies Access - Relais de Clair Bois", "opening_hours": "24/7", "operator": "TotalEnergies", "ref:FR:prix-carburants": "78350002", "shop": "convenience", "toilets": "yes"}}, {"type": "node", "id": 25209786, "lat": 48.6301232, "lon": 2.4863554, "tags": {"addr:description": "N 104 - Direction A 5/A 6, La Francilienne - Aire De La Pointe Ringale", "addr:postcode": "91250", "amenity": "fuel", "brand": "Esso", "brand:wikidata": "Q867662", "compressed_air": "yes", "fuel:diesel": "yes", "fuel:e10": "yes", "fuel:lpg": "yes", "fuel:octane_98": "yes", "hgv:lanes": "yes", "name": "Esso", "opening_hours": "24/7", "operator": "Esso", "ref:FR:prix-carburants": "91250011", "shop": "convenience", "source": "Minist\u00e8re de l'Economie, de l'Industrie et du Num\u00e9rique - 03/2020", "toilets": "yes", "vending": "fuel", "vending_machine": "fuel"}}, {"type": "node", "id": 25209809, "lat": 48.6382753, "lon": 2.201995, "tags": {"addr:description": "N 104 - direction A 10/A 6, La Francilienne - Aire du Fond des Pr\u00e9s", "addr:postcode": "91460", "amenity": "fuel", "brand": "BP", "brand:wikidata": "Q152057", "brand:wikipedia": "en:BP", "compressed_air": "yes", "fuel:diesel": "yes", "fuel:e10": "yes", "fuel:lpg": "yes", "fuel:octane_98": "yes", "hgv:lanes": "yes", "name": "Station BP", "opening_hours": "24/7", "operator": "BP", "ref:FR:prix-carburants": "91460014", "shop": "convenience", "source": "Minist\u00e8re de l'Economie, de l'Industrie et du Num\u00e9rique - 03/2020", "toilets": "yes"}}, {"type": "node", "id": 25209909, "lat": 48.8549783, "lon": 2.2224884, "tags": {"addr:housenumber": "65", "addr:postcode": "92210", "addr:street": "Quai Marcel Dassault", "amenity": "fuel", "brand": "TotalEnergies", "brand:wikidata": "Q154037", "brand:wikipedia": "fr:Total (entreprise)", "compressed_air": "yes", "fuel:GTL_diesel": "yes", "fuel:diesel": "yes", "fuel:e10": "yes", "fuel:e85": "yes", "fuel:lpg": "yes", "fuel:octane_98": "yes", "name": "Relais Saint-Cloud Dassault", "opening_hours": "24/7", "operator": "Total Access", "phone": "+33 1 55 57 12 70", "ref:FR:prix-carburants": "92210009", "shop": "convenience", "source": "Minist\u00e8re de l'Economie, de l'Industrie et du Num\u00e9rique - 03/2020", "vending": "fuel", "vending_machine": "fuel", "website": "https://store.totalenergies.fr/fr_FR/NF007387"}}, {"type": "node", "id": 25210516, "lat": 48.8060686, "lon": 2.3762455, "tags": {"addr:postcode": "94200", "address": "168/180, Boulevard De Stalingrad", "amenity": "fuel", "brand": "Total", "brand:wikidata": "Q154037", "brand:wikipedia": "fr:Total (entreprise)", "compressed_air": "yes", "fuel:diesel": "yes", "fuel:e10": "yes", "fuel:e85": "yes", "fuel:octane_98": "yes", "name": "Total", "opening_hours": "24/7", "operator": "Total", "phone": "+33 1 46 58 37 84", "ref:FR:SIRET": "84419244300118", "ref:FR:prix-carburants": "94200008", "shop": "convenience", "toilets": "yes", "vending": "fuel", "vending_machine": "fuel", "website": "https://store.totalenergies.fr/en_EN/NF072380"}}, {"type": "node", "id": 25210897, "lat": 48.7420431, "lon": 2.4469656, "tags": {"addr:postcode": "94190", "address": "N 6 - Direction Paris, 232, Rue De Paris", "amenity": "fuel", "brand": "Total", "compressed_air": "yes", "fuel:diesel": "yes", "fuel:e10": "yes", "fuel:lpg": "yes", "fuel:octane_98": "yes", "hgv:lanes": "yes", "maxheight": "4.15", "name": "Esso", "opening_hours": "24/7", "operator": "Total Energy", "ref:FR:prix-carburants": "94190007", "shop": "convenience", "source": "survey", "toilets": "yes"}}, {"type": "node", "id": 25213384, "lat": 48.8346767, "lon": 2.266146, "tags": {"addr:postcode": "75015", "address": "Quai d'Issy-les-Moulineaux - Porte d'Issy", "amenity": "fuel", "brand": "Total Access", "brand:wikidata": "Q154037", "brand:wikipedia": "fr:TotalEnergies", "compressed_air": "yes", "fuel:GTL_diesel": "yes", "fuel:adblue": "yes", "fuel:diesel": "yes", "fuel:e10": "yes", "fuel:e85": "yes", "fuel:octane_98": "yes", "name": "Relais Total Du Pont Aval", "opening_hours": "24/7", "operator": "Total", "phone": "+33 1 53 78 05 01", "ref:FR:prix-carburants": "75015026", "shop": "convenience", "source": "Minist\u00e8re de l'Economie, de l'Industrie et du Num\u00e9rique - 03/2020", "toilets": "yes", "vending": "fuel", "vending_machine": "fuel", "website": "https://store.totalenergies.fr/en_EN/NF078037"}}, {"type": "node", "id": 25213982, "lat": 48.7709948, "lon": 2.2276827, "tags": {"addr:city": "V\u00e9lizy-Villacoublay", "addr:postcode": "78140", "address": "N 118 - Direction Province, Val De Gr\u00e2ce", "amenity": "fuel", "brand": "Shell", "brand:wikidata": "Q110716465", "compressed_air": "yes", "fuel:diesel": "yes", "fuel:e10": "yes", "fuel:octane_98": "yes", "hgv:lanes": "yes", "name": "Station Shell", "opening_hours": "24/7", "operator": "Shell", "ref:FR:prix-carburants": "78140009", "shop": "convenience", "source": "Minist\u00e8re de l'Economie, de l'Industrie et du Num\u00e9rique - 03/2020", "toilets": "yes"}}, {"type": "node", "id": 25214414, "lat": 48.7323223, "lon": 2.3659318, "tags": {"addr:city": "Orly", "addr:postcode": "94310", "address": "Direction a\u00e9rogare, A\u00e9roport Orly Ouest", "amenity": "fuel", "brand": "Avia", "brand:wikidata": "Q300147", "brand:wikipedia": "fr:Avia International", "compressed_air": "yes", "fuel:diesel": "yes", "fuel:e10": "yes", "fuel:e85": "yes", "fuel:lpg": "yes", "fuel:octane_98": "yes", "hgv:lanes": "yes", "opening_hours": "24/7", "operator": "Avia", "ref:FR:prix-carburants": "94542003", "shop": "convenience", "source": "Minist\u00e8re de l'Economie, de l'Industrie et du Num\u00e9rique - 03/2020", "toilets": "yes", "vending": "fuel", "vending_machine": "fuel"}}, {"type": "node", "id": 36802040, "lat": 48.7658322, "lon": 2.162263, "tags": {"addr:city": "Jouy-en-Josas", "addr:housenumber": "50", "addr:postcode": "78350", "addr:street": "Avenue Jean Jaur\u00e8s", "branch": "Jouy-en-Josas", "brand": "Auchan Supermarch\u00e9", "brand:wikidata": "Q105857776", "name": "Auchan Supermarch\u00e9", "opening_hours": "Mo-Sa 08:30-20:00; Su 09:00-13:00", "operator": "Auchan Supermarch\u00e9", "phone": "+33 1 39 56 00 33", "shop": "supermarket"}}, {"type": "node", "id": 59722109, "lat": 48.7786, "lon": 2.25354, "tags": {"brand": "Super U", "brand:wikidata": "Q2529029", "brand:wikipedia": "fr:Leader Price", "name": "Super U", "opening_hours": "Mo-Sa 08:30-20:00; Su 09:00-13:00", "operator": "Leader Price", "phone": "+33 1 46 30 16 11", "shop": "supermarket", "website": "https://www.magasins-u.com/magasin/superu-plessisrobinson"}}, {"type": "node", "id": 137284370, "lat": 48.7302334, "lon": 2.2397425, "tags": {"brand": "Lidl", "brand:website": "http://www.lidl.fr", "brand:wikidata": "Q151954", "brand:wikipedia": "en:Lidl", "name": "Lidl", "opening_hours": "Mo-Sa 08:30-20:00; Su 08:30-12:30", "operator": "Lidl", "phone:FR": "0 800 90 03 43", "ref:FR:NAF": "47.11D", "ref:FR:SIREN": "343262622", "ref:FR:SIRET": "34326262204935", "shop": "supermarket"}}, {"type": "node", "id": 156492850, "lat": 48.7994926, "lon": 2.0687249, "tags": {"name": "Saint-Cyr Alimentation", "phone": "+33 1 39 42 07 35", "shop": "convenience", "wheelchair": "no"}}, {"type": "node", "id": 157452800, "lat": 48.8028131, "lon": 2.0615111, "tags": {"addr:housenumber": "3", "addr:street": "Rue Marceau", "brand": "Monoprix", "brand:wikidata": "Q3321241", "brand:wikipedia": "en:Monoprix", "name": "Monoprix", "opening_hours": "Mo-Sa 08:30-20:30; Su 9:00-19:30", "operator": "Monoprix", "phone": "+33130071100", "shop": "supermarket", "website": "https://www.monoprix.fr/1829.html", "wheelchair": "yes"}}, {"type": "node", "id": 196586589, "lat": 48.8097622, "lon": 2.1902829}, {"type": "node", "id": 196586614, "lat": 48.8093666, "lon": 2.1899373}, {"type": "node", "id": 199054408, "lat": 48.7463661, "lon": 2.196704, "tags": {"amenity": "fuel", "brand": "TotalEnergies", "brand:wikidata": "Q154037", "compressed_air": "yes", "fuel:diesel": "yes", "fuel:e10": "yes", "fuel:octane_98": "yes", "hgv:lanes": "yes", "name": "TotalEnergies", "opening_hours": "24/7", "ref:FR:prix-carburants": "91570004", "self_service": "yes", "shop": "convenience", "vending": "fuel", "vending_machine": "fuel"}}, {"type": "node", "id": 206193883, "lat": 48.7835853, "lon": 2.1707588, "tags": {"brand": "Carrefour City", "brand:wikidata": "Q2940187", "name": "Carrefour City", "opening_hours": "Mo-Sa 07:00-21:00; Su 09:00-13:00", "operator": "Carrefour", "phone": "+33 1 39 46 04 51", "shop": "convenience", "website": "https://www.carrefour.fr/magasin/city-velizy"}}, {"type": "node", "id": 206194380, "lat": 48.7844815, "lon": 2.1818283, "tags": {"addr:city": "V\u00e9lizy-Villacoublay", "addr:housenumber": "78", "addr:postcode": "78140", "addr:street": "Avenue du G\u00e9n\u00e9ral de Gaulle", "brand": "Carrefour Market", "brand:wikidata": "Q2689639", "brand:wikipedia": "fr:Carrefour Market", "check_date": "2025-12-20", "name": "Carrefour Market", "opening_hours": "Mo-Sa 08:30-20:30; Su 09:00-12:30", "operator": "Carrefour", "organic": "yes", "payment:cash": "yes", "payment:credit_cards": "yes", "payment:debit_cards": "yes", "phone": "+331 34 58 23 23", "ref:FR:NAF": "47.11D", "ref:FR:SIRET": "44028375204947", "ref:vatin": "FR37440283752", "shop": "convenience", "start_date": "2002-04-30", "stroller": "yes", "website": "https://www.carrefour.fr/magasin/market-velizy-villacoublay", "wheelchair": "yes"}}, {"type": "node", "id": 206195902, "lat": 48.7871094, "lon": 2.1790125, "tags": {"shop": "convenience"}}, {"type": "node", "id": 232753636, "lat": 48.6764854, "lon": 2.1734406}, {"type": "node", "id": 232753641, "lat": 48.6767346, "lon": 2.1735455}, {"type": "node", "id": 243458341, "lat": 48.7978241, "lon": 2.1353585, "tags": {"addr:city": "Versailles", "addr:housenumber": "47", "addr:postcode": "78000", "addr:street": "Rue des \u00c9tats G\u00e9n\u00e9raux", "brand": "Franprix", "brand:wikidata": "Q2420096", "brand:wikipedia": "fr:Franprix", "name": "Franprix", "opening_hours": "Mo-Sa 07:30-21:00; Su 09:00-20:00", "operator": "Groupe Casino", "ref:FR:SIRET": "34125652700019", "shop": "convenience", "website": "https://www.franprix.fr/magasins/5602", "wheelchair": "yes"}}, {"type": "node", "id": 247745920, "lat": 48.7549538, "lon": 2.3716577}, {"type": "node", "id": 247745921, "lat": 48.7549253, "lon": 2.3705954}, {"type": "node", "id": 247745926, "lat": 48.7550346, "lon": 2.3719444}, {"type": "node", "id": 251013837, "lat": 48.7120738, "lon": 2.3733865, "tags": {"addr:housenumber": "180", "brand": "Carrefour", "brand:wikidata": "Q217599", "brand:wikipedia": "fr:Carrefour (enseigne)", "operator": "Carrefour", "shop": "supermarket", "wheelchair": "yes"}}, {"type": "node", "id": 251617420, "lat": 48.6598389, "lon": 2.2414902, "tags": {"brand": "Casino Shop", "brand:wikidata": "Q89029601", "name": "Casino Shop", "shop": "convenience"}}, {"type": "node", "id": 252814154, "lat": 48.8242374, "lon": 2.3651653, "tags": {"addr:city": "Paris", "addr:housenumber": "48", "addr:postcode": "75013", "addr:street": "Avenue d'Ivry", "brand:wikidata": "Q1005336", "changing_table": "no", "contact:city": "Paris", "contact:housenumber": "48", "contact:postcode": "75013", "contact:street": "Avenue d'Ivry", "contact:website": "https://www.tang-freres.fr/supermarche-asiatique/tang-freres-paris-13-avenue-ivry-historique/", "fax": "+33 1 45 85 35 55", "level": "0", "name": "Tang Fr\u00e8res", "opening_hours": "Tu-Fr 09:00-20:00; Sa 08:00-20:00; Su 08:00-13:00", "organic": "no", "origin": "asian", "phone": "+33 1 45 70 80 00", "shop": "supermarket", "toilets": "no", "wheelchair": "yes"}}, {"type": "node", "id": 253141806, "lat": 48.7675889, "lon": 2.1190922}, {"type": "node", "id": 255561645, "lat": 48.6974417, "lon": 2.5068246}, {"type": "node", "id": 255561646, "lat": 48.6974687, "lon": 2.5074188}, {"type": "node", "id": 255688248, "lat": 48.8242398, "lon": 2.2739238, "tags": {"addr:city": "Issy-les-Moulineaux", "addr:postcode": "92130", "addr:street": "Rue du G\u00e9n\u00e9ral Leclerc", "brand": "Monoprix", "brand:wikidata": "Q3321241", "brand:wikipedia": "fr:Monoprix (France)", "name": "Monoprix", "opening_hours": "Mo-Sa 08:30-22:00; Su 09:00-20:00", "operator": "Groupe Casino", "phone": "+33 1 46 44 44 13", "shop": "supermarket", "website": "https://www.monoprix.fr/841.html", "wheelchair": "yes"}}, {"type": "node", "id": 257397217, "lat": 48.7298196, "lon": 2.2767684, "tags": {"brand": "Franprix", "brand:wikidata": "Q2420096", "brand:wikipedia": "fr:Franprix", "contact:city": "Massy", "contact:housenumber": "16", "contact:phone": "+33 1 60 11 48 83", "contact:postcode": "91300", "contact:street": "Rue de Longjumeau", "name": "Franprix", "opening_hours": "Mo-Sa 08:00-20:30; Su 08:00-19:00", "shop": "convenience", "website": "https://www.franprix.fr/magasins/5636"}}, {"type": "node", "id": 259284911, "lat": 48.8391995, "lon": 2.2925362, "tags": {"amenity": "fuel", "brand": "Esso", "brand:wikidata": "Q867662", "brand:wikipedia": "fr:Esso (marque)", "compressed_air": "yes", "fuel:diesel": "yes", "fuel:e10": "yes", "fuel:octane_98": "yes", "name": "Esso", "opening_hours": "24/7", "ref:FR:prix-carburants": "75015003", "shop": "convenience", "source": "Minist\u00e8re de l'Economie, de l'Industrie et du Num\u00e9rique - 03/2020;survey", "toilets": "yes"}}, {"type": "node", "id": 260016094, "lat": 48.8435771, "lon": 2.3052604, "tags": {"addr:city": "Paris", "addr:housenumber": "76", "addr:postcode": "75015", "addr:street": "Rue Lecourbe", "branch": "Lecourbe", "brand": "Monoprix", "brand:wikidata": "Q3321241", "brand:wikipedia": "fr:Monoprix (France)", "contact:city": "Paris", "contact:housenumber": "76", "contact:postcode": "75015", "contact:street": "Rue Lecourbe", "fax": "+33 1 47 83 84 73", "name": "Monoprix", "opening_hours": "09:00-21:45; Su 09:00-20:00", "operator": "Monoprix", "phone": "+33 1 42 73 03 30", "shop": "supermarket", "website": "https://www.monoprix.fr/48.html", "wheelchair": "yes"}}, {"type": "node", "id": 260025228, "lat": 48.6980049, "lon": 2.5072983}, {"type": "node", "id": 260282410, "lat": 48.8234643, "lon": 2.2715919, "tags": {"brand": "Carrefour City", "brand:wikidata": "Q2940187", "brand:wikipedia": "fr:Carrefour City", "check_date": "2024-02-17", "name": "Carrefour City", "opening_hours": "Mo-Sa 07:00-22:00; Su 09:00-13:00", "operator": "Carrefour", "phone": "+33 1 96 69 82 65", "ref:FR:SIRET": "81180379000021", "shop": "convenience", "website": "https://www.carrefour.fr/magasin/city-issy-les-moulineaux-cresson"}}, {"type": "node", "id": 262861803, "lat": 48.8359056, "lon": 2.2906833, "tags": {"brand": "G20", "brand:wikidata": "Q3504731", "name": "G20", "opening_hours": "Mo-Sa 08:00-21:00; Su 09:00-21:00", "shop": "supermarket"}}, {"type": "node", "id": 264102273, "lat": 48.8592378, "lon": 2.4364365, "tags": {"brand": "Monoprix", "brand:wikidata": "Q3321241", "brand:wikipedia": "en:Monoprix", "level": "0", "name": "Monoprix", "opening_hours": "Mo-Sa 08:30-21:30; Su 09:00-12:50", "operator": "Groupe Casino", "phone": "+33 1 41 72 05 80", "shop": "supermarket", "website": "https://www.monoprix.fr/965.html", "wheelchair": "limited"}}, {"type": "node", "id": 268058252, "lat": 48.8461451, "lon": 2.3241196, "tags": {"brand": "Franprix", "brand:wikidata": "Q2420096", "brand:wikipedia": "fr:Franprix", "check_date": "2025-10-10", "name": "Franprix", "opening_hours": "Mo-Sa 07:30-22:00; Su 09:00-22:00", "operator": "Groupe Casino", "shop": "convenience", "website": "https://www.franprix.fr/magasins/4325"}}, {"type": "node", "id": 270807219, "lat": 48.8661141, "lon": 2.3469793, "tags": {"brand": "U Express", "brand:wikidata": "Q2529029", "brand:wikipedia": "en:Syst\u00e8me U", "check_date": "2025-12-30", "level": "0", "name": "U Express", "opening_hours": "Mo-Sa 08:00-22:00, Su 08:30-13:00", "operator": "Syst\u00e8me U", "payment:cash": "yes", "payment:credit_cards": "yes", "payment:debit_cards": "yes", "payment:visa": "yes", "phone": "+33 1 42 36 52 59", "shop": "convenience", "source": "survey 01/2019", "website": "https://www.magasins-u.com/magasin/uexpress-parismontorgueil.m24235", "wheelchair": "yes"}}, {"type": "node", "id": 270807425, "lat": 48.8669014, "lon": 2.3470962, "tags": {"addr:city": "Paris", "addr:housenumber": "15", "addr:street": "Rue des Petits Carreaux", "brand": "U Express", "brand:wikidata": "Q2529029", "check_date": "2026-03-09", "email": "uexpress.paris.petitscarreaux@systeme-u.fr", "level": "0", "name": "U Express", "opening_hours": "Mo-Sa 08:00-22:00; Su 09:00-22:00", "payment:cash": "yes", "payment:credit_cards": "yes", "payment:debit_cards": "yes", "payment:visa": "yes", "phone": "+33 1 42 36 51 00", "shop": "convenience", "source": "survey 01/2019", "website": "https://www.magasins-u.com/magasin/uexpress-parispetitscarreaux", "wheelchair": "yes"}}, {"type": "node", "id": 270808172, "lat": 48.8642239, "lon": 2.3465014, "tags": {"addr:floor": "0", "addr:housenumber": "25", "addr:street": "Rue Montorgueil", "brand": "Franprix", "brand:wikidata": "Q2420096", "brand:wikipedia": "fr:Franprix", "check_date": "2026-03-26", "level": "0", "name": "Franprix", "opening_hours": "Mo-Sa 08:00-21:50; Su 09:00-12:00", "payment:cash": "yes", "payment:credit_cards": "yes", "payment:debit_cards": "yes", "payment:visa": "yes", "ref:FR:SIRET": "54203034100011", "shop": "convenience", "website": "https://www.franprix.fr/magasins/6324", "wheelchair": "yes"}}, {"type": "node", "id": 271963377, "lat": 48.7562945, "lon": 2.3988705, "tags": {"brand": "Franprix", "brand:wikidata": "Q2420096", "brand:wikipedia": "fr:Franprix", "name": "Franprix", "opening_hours": "Mo-Sa 08:30-20:00; Su 09:00-18:00", "operator": "Groupe Casino", "shop": "convenience", "website": "https://www.franprix.fr/magasins/5309"}}, {"type": "node", "id": 272426980, "lat": 48.7669568, "lon": 2.4154502}, {"type": "node", "id": 275330566, "lat": 48.8645469, "lon": 2.1808596, "tags": {"brand": "Carrefour City", "brand:wikidata": "Q2940187", "brand:wikipedia": "fr:Carrefour City", "name": "Carrefour City", "opening_hours": "Mo-Sa 07:00-22:00; Su 09:00-22:00", "operator": "Carrefour", "phone": "+33 1 47 49 64 85", "shop": "convenience", "website": "https://www.carrefour.fr/magasin/city-rueil-malmaison-empereur", "wheelchair": "yes"}}, {"type": "node", "id": 275347030, "lat": 48.8681845, "lon": 2.1934373, "tags": {"brand": "Carrefour City", "brand:wikidata": "Q2940187", "brand:wikipedia": "fr:Carrefour City", "name": "Carrefour City", "opening_hours": "Mo-Sa 07:00-21:00; Su 08:30-13:00", "operator": "Carrefour City", "phone": "+33 1 47 49 30 59", "shop": "convenience", "website": "https://www.carrefour.fr/magasin/city-rueil-malmaison-18-juin", "wheelchair": "yes"}}, {"type": "node", "id": 276919027, "lat": 48.8379645, "lon": 2.258237, "tags": {"addr:city": "Paris", "addr:housenumber": "217", "addr:postcode": "75016", "addr:street": "Avenue de Versailles", "brand": "G20", "brand:wikidata": "Q3504731", "name": "G20", "opening_hours": "Mo-Sa 08:00-22:00,Su 09:00-22:00", "operator": "G20", "shop": "supermarket", "website": "https://www.g20-minute.com/nos-enseignes"}}, {"type": "node", "id": 276946165, "lat": 48.8604062, "lon": 2.4392463, "tags": {"addr:city": "Montreuil", "addr:housenumber": "32", "addr:postcode": "93100", "addr:street": "Boulevard Rouget de Lisle", "contact:instagram": "https://www.instagram.com/bocalgenial_montreuil/", "level": "0", "name": "Bocal G\u00e9nial", "opening_hours": "Tu-Sa 10:00-19:30; Su 10:00-13:00", "ref:FR:SIRET": "95295452700026", "shop": "convenience"}}, {"type": "node", "id": 280694858, "lat": 48.8693722, "lon": 2.3551317, "tags": {"brand": "G20", "brand:wikidata": "Q3504731", "brand:wikipedia": "fr:Supermarch\u00e9s G20", "check_date": "2025-09-22", "contact:city": "Paris", "contact:housenumber": "6", "contact:postcode": "75010", "contact:street": "Boulevard Saint-Denis", "contact:website": "https://www.supermarchesg20.com/nos-magasins/supermarche-g20-63", "name": "G20", "operator": "G20", "ref:FR:SIRET": "49501074600024", "shop": "supermarket"}}, {"type": "node", "id": 281001675, "lat": 48.8703138, "lon": 2.3531191, "tags": {"amenity": "parcel_locker", "brand": "Carrefour City", "brand:wikidata": "Q2940187", "brand:wikipedia": "fr:Carrefour City", "check_date": "2026-03-16", "check_date:opening_hours": "2022-11-16", "contact:city": "Paris", "contact:housenumber": "12", "contact:phone": "+33 1 40 18 05 09", "contact:postcode": "75010", "contact:street": "Rue du Faubourg Saint-Denis", "contact:website": "https://www.carrefour.fr/magasin/city-paris-faubourg-saint-denis-12", "indoor": "yes", "name": "Carrefour City", "opening_hours": "Mo-Sa 08:00-22:00, Su 09:00-22:00", "operator": "Groupe Carrefour;VintedGo", "operator:wikidata": "Q3117359", "operator:wikipedia": "fr:Groupe Carrefour", "parcel_mail_in": "yes", "parcel_pickup": "yes", "ref:FR:SIRET": "84415567100044", "shop": "convenience", "wheelchair": "yes"}}, {"type": "node", "id": 282175384, "lat": 48.8207696, "lon": 2.2512358, "tags": {"addr:postcode": "92130", "brand": "Auchan", "brand:wikidata": "Q758603", "brand:wikipedia": "en:Auchan", "name": "Auchan", "opening_hours": "Mo-Sa 08:30-21:30; Su 08:30-12:30", "operator": "Auchan", "phone": "+33 1 46 29 49 00", "shop": "supermarket", "website": "https://issy3moulins.fr"}}, {"type": "node", "id": 283225860, "lat": 48.8579464, "lon": 2.3012012, "tags": {"brand": "G20", "brand:wikidata": "Q3504731", "brand:wikipedia": "fr:Supermarch\u00e9s G20", "name": "G20", "operator": "G20", "shop": "supermarket"}}, {"type": "node", "id": 283347984, "lat": 48.8655996, "lon": 2.3519365, "tags": {"addr:city": "Paris", "addr:floor": ";0", "addr:housenumber": "95", "addr:postcode": "75002", "addr:street": "Boulevard de S\u00e9bastopol", "brand": "Monoprix", "brand:wikidata": "Q3321241", "brand:wikipedia": "fr:Monoprix (France)", "check_date": "2026-01-08", "fax": "+33142219110", "level": "-1;0", "name": "Monoprix", "opening_hours": "Mo-Sa 08:00-22:00; Su 09:00-20:00", "operator": "Groupe Casino", "payment:american_express": "yes", "payment:cash": "yes", "payment:contactless": "yes", "payment:credit_cards": "yes", "payment:debit_cards": "yes", "payment:visa": "yes", "phone": "+33 1 42 33 36 15", "shop": "supermarket", "wheelchair": "limited"}}, {"type": "node", "id": 288033070, "lat": 48.7810787, "lon": 2.2629767, "tags": {"addr:city": "Le Plessis-Robinson", "addr:housenumber": "3", "addr:postcode": "92350", "addr:street": "Grand'Place", "brand": "Carrefour Market", "brand:wikidata": "Q2689639", "brand:wikipedia": "fr:Carrefour Market", "name": "Carrefour Market", "opening_hours": "Mo-Sa 08:30-21:00; Su 08:30-12:30", "operator": "Carrefour", "phone": "+33 1 45 37 30 20", "shop": "convenience", "website": "https://www.carrefour.fr/magasin/market-le-plessis-robinson"}}, {"type": "node", "id": 288156664, "lat": 48.8573257, "lon": 2.4029932, "tags": {"brand": "Intermarch\u00e9 Express", "brand:wikidata": "Q98278043", "brand:wikipedia": "fr:Intermarch\u00e9", "check_date": "2025-12-07", "check_date:opening_hours": "2025-12-07", "name": "Intermarch\u00e9 Express", "opening_hours": "Mo-Sa 08:30-21:00; Su 09:00-20:00", "operator": "Groupement des Mousquetaires", "payment:mastercard": "yes", "payment:visa": "yes", "phone": "+33 1 43 71 82 06", "ref:FR:SIRET": "42122339700017", "shop": "supermarket", "website": "https://www.intermarche.com/magasins/02971/paris-75020/infos-pratiques"}}, {"type": "node", "id": 288157892, "lat": 48.8550047, "lon": 2.401549, "tags": {"brand": "Franprix", "brand:wikidata": "Q2420096", "brand:wikipedia": "fr:Franprix", "check_date": "2026-01-18", "name": "Franprix", "opening_hours": "Mo-Su 08:30-21:00; Su 09:00-13:00", "operator": "Groupe Casino", "shop": "convenience", "website": "https://www.franprix.fr/magasins/4248"}}, {"type": "node", "id": 288158041, "lat": 48.8533252, "lon": 2.4057615, "tags": {"addr:housenumber": "75", "addr:street": "Rue des Pyr\u00e9n\u00e9es", "brand": "Lidl", "brand:website": "http://www.lidl.fr", "brand:wikidata": "Q151954", "brand:wikipedia": "en:Lidl", "dog": "no", "name": "Lidl", "opening_hours": "Mo-Sa 08:30-21:00; Su 08:30-12:15", "operator": "Lidl", "ref:FR:NAF": "47.11D", "ref:FR:SIREN": "343262622", "ref:FR:SIRET": "34326262206500", "shop": "supermarket", "wheelchair": "limited"}}, {"type": "node", "id": 288328432, "lat": 48.8653489, "lon": 2.4156657, "tags": {"brand": "Auchan", "brand:wikidata": "Q758603", "brand:wikipedia": "en:Auchan", "check_date": "2025-10-16", "name": "Auchan", "opening_hours": "Mo-Fr 08:30-21:30; Sa 08:00-21:30; Su 08:30-12:30", "operator": "Auchan", "shop": "supermarket"}}, {"type": "node", "id": 291613359, "lat": 48.6153221, "lon": 2.5051864}, {"type": "node", "id": 291613361, "lat": 48.6145959, "lon": 2.5054917}, {"type": "node", "id": 291613363, "lat": 48.614656, "lon": 2.5058034}, {"type": "node", "id": 291613365, "lat": 48.6147719, "lon": 2.5057552}, {"type": "node", "id": 291613369, "lat": 48.6154815, "lon": 2.5060466}, {"type": "node", "id": 292039458, "lat": 48.7626646, "lon": 2.40147, "tags": {"brand": "Franprix", "brand:wikidata": "Q2420096", "brand:wikipedia": "fr:Franprix", "name": "Franprix", "operator": "Groupe Casino", "shop": "convenience"}}, {"type": "node", "id": 292608268, "lat": 48.7675431, "lon": 2.1190575}, {"type": "node", "id": 293986500, "lat": 48.8666873, "lon": 2.3679348, "tags": {"check_date": "2026-01-24", "name": "Alimentation G\u00e9nr\u00e9ale Blue", "opening_hours": "Mo-Su 11:00-02:00", "shop": "convenience", "wheelchair": "no"}}, {"type": "node", "id": 293986549, "lat": 48.8632059, "lon": 2.3863208, "tags": {"brand": "Franprix", "brand:wikidata": "Q2420096", "brand:wikipedia": "fr:Franprix", "check_date": "2025-08-24", "name": "Franprix", "opening_hours": "Mo-Sa 08:30-21:00; Su 09:00-13:00", "operator": "Groupe Casino", "shop": "convenience", "website": "https://www.franprix.fr/magasins/4195"}}, {"type": "node", "id": 295494768, "lat": 48.8221145, "lon": 2.313147, "tags": {"addr:postcode": "92120", "addr:street": "Avenue Pierre Brossolette", "brand": "Monoprix", "brand:wikidata": "Q3321241", "brand:wikipedia": "fr:Monoprix (France)", "name": "Monoprix", "opening_hours": "Mo-Sa 09:00-22:00; Su 09:00-13:00", "operator": "Groupe Casino", "phone": "+33 1 46 56 38 40", "shop": "supermarket", "website": "https://www.monoprix.fr/770.html", "wheelchair": "limited"}}, {"type": "node", "id": 297701386, "lat": 48.8029276, "lon": 2.4845213, "tags": {"air_conditioning": "yes", "brand": "Monop'", "brand:wikidata": "Q89913683", "brand:wikipedia": "fr:Monoprix (France)", "check_date": "2026-03-25", "check_date:opening_hours": "2026-03-25", "name": "Monop'", "opening_hours": "Mo-Sa 08:00-22:00; Su 09:00-13:00", "operator": "Groupe Casino", "shop": "convenience", "wheelchair": "yes"}}, {"type": "node", "id": 306912775, "lat": 48.83919, "lon": 2.3005803, "tags": {"brand": "Carrefour City", "brand:wikidata": "Q2940187", "brand:wikipedia": "fr:Carrefour City", "contact:city": "Paris", "contact:housenumber": "293", "contact:phone": "+33 1 45 33 53 66", "contact:postcode": "75015", "contact:street": "Rue de Vaugirard", "contact:website": "https://www.carrefour.fr/", "name": "Carrefour City", "opening_hours": "Mo-Sa 07:00-23:00; Su 09:00-13:00", "operator": "Groupe Carrefour", "operator:wikidata": "Q3117359", "operator:wikipedia": "fr:Groupe Carrefour", "ref:FR:SIRET": "35052655400018", "shop": "convenience"}}, {"type": "node", "id": 309742034, "lat": 48.600118, "lon": 2.434283}, {"type": "node", "id": 309742036, "lat": 48.600387, "lon": 2.434033}, {"type": "node", "id": 309895634, "lat": 48.763496, "lon": 2.487669}, {"type": "node", "id": 310054121, "lat": 48.8366804, "lon": 2.2948576, "tags": {"branch": "Convention", "brand": "Monoprix", "brand:wikidata": "Q3321241", "check_date:opening_hours": "2023-12-27", "contact:city": "Paris", "contact:fax": "+33 1 45 57 21 92", "contact:housenumber": "340", "contact:phone": "+33 1 45 54 33 63", "contact:postcode": "75015", "contact:street": "Rue de Vaugirard", "contact:website": "https://www.monoprix.fr/51.html", "name": "Monoprix", "opening_hours": "Mo-Sa 08:00-23:30; Su 08:00-20:00", "operator": "Monoprix", "shop": "supermarket", "source": "survey", "wheelchair": "yes"}}, {"type": "node", "id": 310054182, "lat": 48.836409, "lon": 2.2951587, "tags": {"brand": "Carrefour City", "brand:wikidata": "Q2940187", "brand:wikipedia": "fr:Carrefour City", "name": "Carrefour City", "opening_hours": "Mo-Sa 07:00-22:00; Su 09:00-13:00", "operator": "Groupe Carrefour", "operator:wikidata": "Q3117359", "operator:wikipedia": "fr:Groupe Carrefour", "organic": "yes", "phone": "+33 1 48 04 31 05", "ref:FR:SIRET": "89892163000015", "shop": "convenience", "website": "https://www.carrefour.fr/magasin/city-paris-vaugirard-365", "wheelchair": "yes"}}, {"type": "node", "id": 310990566, "lat": 48.8047357, "lon": 2.3268993, "tags": {"brand": "Carrefour", "brand:wikidata": "Q217599", "name": "Carrefour", "opening_hours": "Mo-Sa 08:30-21:00; Su 09:00-12:15", "shop": "supermarket", "supermarket": "hypermarket", "website": "https://www.carrefour.fr/magasin/arcueil"}}, {"type": "node", "id": 312765467, "lat": 48.8457327, "lon": 2.28736, "tags": {"brand": "Carrefour City", "brand:wikidata": "Q2940187", "brand:wikipedia": "fr:Carrefour City", "contact:city": "Paris", "contact:housenumber": "54", "contact:postcode": "75015", "contact:street": "Rue des Entrepreneurs", "name": "Carrefour City", "opening_hours": "Mo-Sa 07:00-22:00; Su 09:00-12:00+", "operator": "Groupe Carrefour", "operator:wikidata": "Q3117359", "operator:wikipedia": "fr:Groupe Carrefour", "ref:FR:SIRET": "91085936200022", "shop": "convenience"}}, {"type": "node", "id": 315765309, "lat": 48.8303333, "lon": 2.3286779, "tags": {"brand": "Monoprix", "brand:wikidata": "Q3321241", "brand:wikipedia": "fr:Monoprix (France)", "contact:housenumber": "52;54", "contact:street": "Avenue du G\u00e9n\u00e9ral Leclerc", "name": "Monoprix", "opening_hours": "Mo-Sa 08:00-21:00, Su 09:00-13:00", "operator": "Groupe Casino", "phone": "+33 1 45 41 26 98", "shop": "supermarket", "website": "https://www.monoprix.fr/799.html", "wheelchair": "yes"}}, {"type": "node", "id": 315786707, "lat": 48.844575, "lon": 2.3454978, "tags": {"brand": "Franprix", "brand:wikidata": "Q2420096", "brand:wikipedia": "fr:Franprix", "check_date": "2025-06-14", "check_date:opening_hours": "2025-06-14", "name": "Franprix", "opening_hours": "Mo-Sa 08:30-21:00", "shop": "convenience", "website": "https://www.franprix.fr/magasins/6278", "wheelchair": "yes"}}, {"type": "node", "id": 315998220, "lat": 48.8140857, "lon": 2.0523433, "tags": {"name": "Carrefour City", "shop": "supermarket", "wheelchair": "limited"}}, {"type": "node", "id": 321259611, "lat": 48.8332905, "lon": 2.3609723, "tags": {"addr:street": "Place Pinel", "brand": "Aldi", "brand:wikidata": "Q41171373", "check_date": "2025-04-06", "level": "0", "name": "Aldi", "opening_hours": "Mo-Sa 08:00-21:00; Su 08:30-12:30", "phone": "+33 9 77 40 40 44", "shop": "supermarket", "website": "https://www.aldi.fr/magasins-et-horaires-d-ouverture.html/l/paris/7-place-pinel/3435205"}}, {"type": "node", "id": 321932887, "lat": 48.8406857, "lon": 2.3453388, "tags": {"check_date:opening_hours": "2025-09-29", "level": "0", "name": "Sitis Market", "opening_hours": "Mo-Sa 07:30-22:30", "operator": "SiTiS", "payment:credit_cards": "yes", "payment:debit_cards": "yes", "shop": "convenience", "toilets": "no", "wheelchair": "yes"}}, {"type": "node", "id": 325682977, "lat": 48.8534094, "lon": 2.3325318, "tags": {"brand": "Monoprix", "brand:wikidata": "Q3321241", "brand:wikipedia": "fr:Monoprix (France)", "check_date": "2024-07-02", "name": "Monoprix", "opening_hours": "Mo-Sa 08:00-23:40; Su 09:00-20:00", "operator": "Groupe Casino", "shop": "supermarket", "website": "https://www.monoprix.fr/816.html"}}, {"type": "node", "id": 325766149, "lat": 48.7801034, "lon": 2.4444963, "tags": {"amenity": "fuel", "brand": "TotalEnergies", "brand:wikidata": "Q154037", "brand:wikipedia": "fr:Total (entreprise)", "compressed_air": "yes", "fuel:diesel": "yes", "fuel:e10": "yes", "fuel:e85": "yes", "fuel:octane_98": "yes", "hgv:lanes": "yes", "name": "Total", "operator": "Total", "ref:FR:prix-carburants": "94000011", "shop": "convenience", "source": "Minist\u00e8re de l'Economie, de l'Industrie et du Num\u00e9rique - 03/2020", "toilets": "yes"}}, {"type": "node", "id": 326334714, "lat": 48.8640484, "lon": 2.3781979, "tags": {"addr:housenumber": "83", "addr:postcode": "75011", "addr:street": "Rue Saint-Maur", "brand": "Lidl", "brand:website": "http://www.lidl.fr", "brand:wikidata": "Q151954", "brand:wikipedia": "fr:Lidl", "diet:halal": "yes", "name": "Lidl", "opening_hours": "Mo-Sa 08:30-21:00", "operator": "Lidl", "shop": "supermarket"}}, {"type": "node", "id": 326334727, "lat": 48.8619244, "lon": 2.380561, "tags": {"brand": "Monop'", "brand:wikidata": "Q89913683", "brand:wikipedia": "fr:Monoprix (France)", "check_date": "2025-10-08", "check_date:opening_hours": "2025-10-08", "name": "Monop'", "opening_hours": "Mo-Sa 08:00-23:45; Su 08:30-20:45", "operator": "Groupe Casino", "phone": "+33 1 55 28 38 70", "ref:FR:SIRET": "44465668000600", "shop": "convenience", "website": "https://www.monoprix.fr/monop-saint-ambroise-paris-75011-s", "wheelchair": "yes"}}, {"type": "node", "id": 327570495, "lat": 48.863486, "lon": 2.3812753, "tags": {"addr:city": "Paris", "addr:housenumber": "65", "addr:postcode": "75011", "addr:street": "Rue Servan", "brand": "Franprix", "brand:wikidata": "Q2420096", "brand:wikipedia": "fr:Franprix", "check_date": "2025-07-12", "name": "Franprix", "opening_hours": "Mo-Sa 07:30-22:00; Su 09:00-19:00", "operator": "Groupe Casino", "shop": "convenience", "website": "https://www.franprix.fr/magasins/8044", "wheelchair": "no"}}, {"type": "node", "id": 330494873, "lat": 48.8400818, "lon": 2.3221697, "tags": {"addr:city": "Paris", "addr:housenumber": "53/55", "addr:postcode": "75014", "addr:street": "Avenue du Maine", "brand": "Lidl", "brand:wikidata": "Q151954", "check_date": "2025-04-16", "name": "Lidl", "opening_hours": "Mo-Sa 08:00-21:00, Su 08:30-12:15", "ref:FR:NAF": "47.11D", "ref:FR:SIREN": "343262622", "ref:FR:SIRET": "34326262225922", "shop": "supermarket", "start_date": "2023-01-11"}}, {"type": "node", "id": 332087204, "lat": 48.8584763, "lon": 2.3805487, "tags": {"addr:housenumber": "8", "addr:postcode": "75011", "addr:street": "Place L\u00e9on Blum", "branch": "Voltaire - Paris", "brand": "Auchan Supermarch\u00e9", "brand:wikidata": "Q105857776", "check_date": "2024-03-11", "name": "Auchan Supermarch\u00e9", "opening_hours": "Mo-Sa 08:30-21:30; Su 08:30-12:30,13:00-20:30", "phone": "+33 1 43 79 44 56", "shop": "supermarket"}}, {"type": "node", "id": 335877238, "lat": 48.7717355, "lon": 2.4140577, "tags": {"brand": "Leader Price", "brand:wikidata": "Q2181426", "brand:wikipedia": "fr:Leader Price", "name": "Franprix", "operator": "Leader Price", "shop": "supermarket"}}, {"type": "node", "id": 340402107, "lat": 48.8506007, "lon": 2.3901866, "tags": {"brand": "Franprix", "brand:wikidata": "Q2420096", "brand:wikipedia": "fr:Franprix", "check_date": "2025-09-13", "name": "Franprix", "opening_hours": "Mo-Sa 07:00-22:00; Su 09:00-22:00", "operator": "Groupe Casino", "payment:cash": "yes", "payment:credit_cards": "yes", "payment:debit_cards": "yes", "phone": "+33 9 70 17 14 14", "shop": "convenience", "website": "https://www.franprix.fr/paris/63-69-rue-de-montreuil/75011/5569/", "wheelchair": "yes"}}, {"type": "node", "id": 343527942, "lat": 48.8259344, "lon": 2.197882, "tags": {"brand": "Carrefour City", "brand:wikidata": "Q2940187", "brand:wikipedia": "fr:Carrefour City", "check_date:opening_hours": "2022-06-25", "contact:phone": "+33 1 47 09 53 54", "name": "Carrefour City", "opening_hours": "Mo-Sa 07:00-21:00; Su 09:00-13:00", "operator": "Carrefour City", "shop": "convenience", "website": "https://www.carrefour.fr/magasin/city-ville-d-avray", "wheelchair": "yes"}}, {"type": "node", "id": 343639785, "lat": 48.7859067, "lon": 2.4509942, "tags": {"check_date": "2026-01-24", "check_date:opening_hours": "2026-01-24", "level": "0", "opening_hours:signed": "no", "ref:FR:SIRET": "50348683900015", "shop": "convenience", "wheelchair": "limited"}}, {"type": "node", "id": 344391400, "lat": 48.7729486, "lon": 2.4575591, "tags": {"brand": "Franprix", "brand:wikidata": "Q2420096", "brand:wikipedia": "fr:Franprix", "name": "Franprix", "opening_hours": "Tu-Su 09:00-13:00,15:30-20:00", "operator": "Franprix", "shop": "supermarket", "wheelchair": "yes"}}, {"type": "node", "id": 344395857, "lat": 48.7772006, "lon": 2.4630929, "tags": {"brand": "Lidl", "brand:website": "http://www.lidl.fr", "brand:wikidata": "Q151954", "brand:wikipedia": "fr:Lidl", "name": "Lidl", "operator": "Lidl", "ref:FR:NAF": "47.11D", "ref:FR:SIREN": "343262622", "ref:FR:SIRET": "34326262207060", "shop": "supermarket"}}, {"type": "node", "id": 344395927, "lat": 48.7784957, "lon": 2.4553096, "tags": {"access": "yes", "door": "automatic", "entrance": "yes", "layer": "1", "level": "1", "ref": "Porte 25", "source": "Bing", "wheelchair": "yes"}}, {"type": "node", "id": 344508433, "lat": 48.8056364, "lon": 2.4556296, "tags": {"shop": "convenience"}}, {"type": "node", "id": 344614982, "lat": 48.6647199, "lon": 2.376696}, {"type": "node", "id": 344614983, "lat": 48.6643015, "lon": 2.3774914}, {"type": "node", "id": 344614984, "lat": 48.6641257, "lon": 2.3774006}, {"type": "node", "id": 344614985, "lat": 48.6640356, "lon": 2.3777667}, {"type": "node", "id": 344614986, "lat": 48.6634793, "lon": 2.377531}, {"type": "node", "id": 344614987, "lat": 48.6633716, "lon": 2.3774654}, {"type": "node", "id": 344614988, "lat": 48.6633483, "lon": 2.3775624}, {"type": "node", "id": 344614989, "lat": 48.6633128, "lon": 2.3775408}, {"type": "node", "id": 344614990, "lat": 48.66323, "lon": 2.3776436}, {"type": "node", "id": 344614991, "lat": 48.6632039, "lon": 2.3775918}, {"type": "node", "id": 344614992, "lat": 48.6630911, "lon": 2.377534}, {"type": "node", "id": 344614993, "lat": 48.6626602, "lon": 2.3769586}, {"type": "node", "id": 344614994, "lat": 48.6627584, "lon": 2.3765495}, {"type": "node", "id": 344614995, "lat": 48.6629079, "lon": 2.3764811}, {"type": "node", "id": 344614996, "lat": 48.663039, "lon": 2.375952}, {"type": "node", "id": 344614997, "lat": 48.6630625, "lon": 2.3753233}, {"type": "node", "id": 344614998, "lat": 48.6633659, "lon": 2.3754866}, {"type": "node", "id": 344614999, "lat": 48.6633422, "lon": 2.3755943}, {"type": "node", "id": 344615000, "lat": 48.6644221, "lon": 2.3761961}, {"type": "node", "id": 344615001, "lat": 48.6643522, "lon": 2.3764774}, {"type": "node", "id": 354427308, "lat": 48.7848388, "lon": 2.044181, "tags": {"addr:city": "Montigny-le-Bretonneux", "addr:postcode": "78180", "addr:street": "Rue Jo\u00ebl le Theule", "brand": "Carrefour", "brand:wikidata": "Q217599", "brand:wikipedia": "fr:Carrefour (enseigne)", "level": "0;1", "name": "Carrefour", "opening_hours": "Mo-Sa 08:30-21, Su 08:30-12:30", "operator": "Carrefour", "phone": "+33 1 30 48 85 79", "shop": "supermarket", "wheelchair": "yes"}}, {"type": "node", "id": 357252564, "lat": 48.6150586, "lon": 2.5062247}, {"type": "node", "id": 365137991, "lat": 48.8515486, "lon": 2.4016481, "tags": {"brand": "G20", "brand:wikidata": "Q3504731", "brand:wikipedia": "fr:Supermarch\u00e9s G20", "name": "G20", "opening_hours": "Mo-Sa 08:00-21:00; Su 09:00-21:00", "operator": "G20", "shop": "supermarket", "wheelchair": "yes"}}, {"type": "node", "id": 373744329, "lat": 48.8291076, "lon": 2.3235383, "tags": {"alt_name": "Monoprix Moulin Vert", "branch": "Moulin Vert PN", "brand": "Monoprix", "brand:wikidata": "Q3321241", "brand:wikipedia": "en:Monoprix;fr:Monoprix (France)", "check_date:opening_hours": "2025-12-04", "contact:city": "Paris", "contact:housenumber": "92", "contact:postcode": "75014", "contact:street": "Rue d'Al\u00e9sia", "name": "Monoprix", "opening_hours": "Mo-Sa 09:30-20:30", "operator": "Groupe Casino", "phone": "+33 1 58 14 22 90", "shop": "supermarket", "website": "https://www.monoprix.fr/1198.html", "wheelchair": "yes"}}, {"type": "node", "id": 385145849, "lat": 48.8520109, "lon": 2.4060046, "tags": {"brand": "Carrefour City", "brand:wikidata": "Q2940187", "brand:wikipedia": "fr:Carrefour City", "check_date": "2025-11-09", "check_date:opening_hours": "2023-06-23", "name": "Carrefour City", "opening_hours": "Mo-Sa 07:00-21:00; Su 09:00-13:00", "operator": "Groupe Carrefour", "operator:wikidata": "Q3117359", "operator:wikipedia": "fr:Groupe Carrefour", "phone": "+33 1 43 48 09 13", "ref:FR:SIRET": "50044073000017", "shop": "convenience", "website": "https://www.carrefour.fr/magasin/city-paris-avron", "wheelchair": "yes"}}, {"type": "node", "id": 388831842, "lat": 48.7555862, "lon": 2.2921453}, {"type": "node", "id": 388831867, "lat": 48.7556962, "lon": 2.2917233}, {"type": "node", "id": 390291644, "lat": 48.8522629, "lon": 2.444721, "tags": {"brand": "Le Petit Casino", "brand:wikidata": "Q89029249", "name": "Le Petit Casino", "opening_hours": "Mo 15:30-20:30; Tu-Sa 08:30-13:00, 15:30-20:30; Su 09:00-13:00", "operator": "Casino", "phone": "+33 1 55 86 00 50", "ref:FR:SIRET": "87912749600013", "shop": "convenience", "wheelchair": "yes"}}, {"type": "node", "id": 408505075, "lat": 48.8527019, "lon": 2.4240926, "tags": {"addr:city": "Montreuil", "addr:housenumber": "49", "addr:postcode": "93100", "addr:street": "Rue Raspail", "brand": "Naturalia", "brand:wikidata": "Q3337081", "bulk_purchase": "yes", "email": "centrecontactclient@naturalia.fr", "name": "Naturalia", "opening_hours": "Mo-Sa 09:00-20:00; Su 09:00-12:45", "organic": "only", "phone": "+33 1 49 88 25 10", "ref:FR:SIRET": "91132170100029", "shop": "supermarket", "website": "https://magasins.naturalia.fr/naturalia/fr/store/france/ile-de-france/seine-saint-denis/montreuil/montreuil-raspail/4970"}}, {"type": "node", "id": 414721312, "lat": 48.8509945, "lon": 2.4339667, "tags": {"addr:city": "Montreuil", "addr:housenumber": "4", "addr:postcode": "93100", "addr:street": "Rue des Meuniers", "brand": "Franprix", "brand:wikidata": "Q2420096", "brand:wikipedia": "fr:Franprix", "name": "Franprix", "opening_hours": "Mo-Sa 08:00-21:00; Su 08:00-13:00", "operator": "Groupe Casino", "ref:FR:SIRET": "91805111100022", "shop": "convenience", "source": "cadastre-dgi-fr source : Direction G\u00e9n\u00e9rale des Imp\u00f4ts - Cadastre;mise \u00e0 jour : 2009"}}, {"type": "node", "id": 414722748, "lat": 48.8531108, "lon": 2.4264272, "tags": {"brand": "Franprix", "brand:wikidata": "Q2420096", "brand:wikipedia": "fr:Franprix", "name": "Franprix", "opening_hours": "Mo-Sa 09:00-21:00, Su 09:00-20:00", "operator": "Groupe Casino", "ref:FR:SIRET": "90965372700026", "shop": "convenience", "source": "cadastre-dgi-fr source : Direction G\u00e9n\u00e9rale des Imp\u00f4ts - Cadastre;mise \u00e0 jour : 2009", "website": "https://www.franprix.fr/magasins/1230", "wheelchair": "no"}}, {"type": "node", "id": 415684912, "lat": 48.7851253, "lon": 2.2503242}, {"type": "node", "id": 415684914, "lat": 48.785239, "lon": 2.2501964}, {"type": "node", "id": 415684917, "lat": 48.7854897, "lon": 2.2508093}, {"type": "node", "id": 415684918, "lat": 48.7853748, "lon": 2.2509399}, {"type": "node", "id": 415684920, "lat": 48.7852707, "lon": 2.2502768}, {"type": "node", "id": 415684922, "lat": 48.7854688, "lon": 2.2507574}, {"type": "node", "id": 415684923, "lat": 48.7854288, "lon": 2.2501341}, {"type": "node", "id": 415684925, "lat": 48.7856204, "lon": 2.2505841}, {"type": "node", "id": 415684927, "lat": 48.7856159, "lon": 2.2505707}, {"type": "node", "id": 415684930, "lat": 48.785422, "lon": 2.2501131}, {"type": "node", "id": 415684931, "lat": 48.7855133, "lon": 2.2500269}, {"type": "node", "id": 415684933, "lat": 48.7857922, "lon": 2.2503829}, {"type": "node", "id": 415684935, "lat": 48.7854923, "lon": 2.249975}, {"type": "node", "id": 415684937, "lat": 48.7855848, "lon": 2.2498897}, {"type": "node", "id": 415684938, "lat": 48.7857862, "lon": 2.2503666}, {"type": "node", "id": 415684942, "lat": 48.7855651, "lon": 2.2498394}, {"type": "node", "id": 415684943, "lat": 48.7856259, "lon": 2.2497767}, {"type": "node", "id": 415684948, "lat": 48.7859367, "lon": 2.2502235}, {"type": "node", "id": 415684949, "lat": 48.7858541, "lon": 2.2500164}, {"type": "node", "id": 416548854, "lat": 48.8671547, "lon": 2.3728976, "tags": {"air_conditioning": "yes", "brand": "Franprix", "brand:wikidata": "Q2420096", "brand:wikipedia": "fr:Franprix", "check_date": "2026-03-07", "level": "0", "name": "Franprix", "opening_hours": "Mo-Sa 07:30-22:00; Su 09:00-13:00", "operator": "Groupe Casino", "payment:credit_cards": "yes", "payment:mastercard": "yes", "payment:visa": "yes", "shop": "convenience", "website": "https://www.franprix.fr/magasins/4422", "wheelchair": "yes"}}, {"type": "node", "id": 416626727, "lat": 48.8689224, "lon": 2.3747761, "tags": {"addr:street": "Rue Saint-Maur", "brand": "Aldi", "brand:wikidata": "Q41171373", "check_date": "2025-07-10", "name": "Aldi", "opening_hours": "Mo-Sa 08:00-21:00; Su 08:00-12:30", "phone": "+33 9 77 40 40 44", "shop": "supermarket", "website": "https://www.aldi.fr/magasins-et-horaires-d-ouverture.html/l/paris/142-150-rue-saint-maur/3436367"}}, {"type": "node", "id": 416707322, "lat": 48.8705122, "lon": 2.3709103, "tags": {"brand": "G20", "brand:wikidata": "Q3504731", "brand:wikipedia": "fr:Supermarch\u00e9s G20", "check_date": "2025-08-06", "check_date:opening_hours": "2021-11-11", "contact:city": "Paris", "contact:housenumber": "156", "contact:phone": "+33 1 44 52 06 24", "contact:postcode": "75010", "contact:street": "Avenue Parmentier", "contact:website": "https://www.supermarchesg20.com/nos-magasins/supermarche-g20-11", "name": "G20", "opening_hours": "Mo-Sa 07:30-22:00; Su 09:00-21:00", "operator": "SODIPAR", "ref:FR:SIRET": "41243156100015", "shop": "supermarket", "wheelchair": "yes"}}, {"type": "node", "id": 416710039, "lat": 48.8701691, "lon": 2.3721452, "tags": {"brand": "Monoprix", "brand:wikidata": "Q3321241", "brand:wikipedia": "fr:Monoprix (France)", "check_date": "2026-03-27", "check_date:opening_hours": "2026-03-27", "name": "Monoprix", "opening_hours": "Mo-Sa 08:30-21:50; Su 09:00-13:00", "operator": "Groupe Casino", "phone": "+33 1 43 57 14 80", "shop": "supermarket", "website": "https://www.monoprix.fr/883.html", "wheelchair": "yes"}}, {"type": "node", "id": 416711600, "lat": 48.8684943, "lon": 2.3689987, "tags": {"addr:housenumber": "8", "addr:street": "Rue de la Fontaine au Roi", "air_conditioning": "yes", "brand": "Carrefour City", "brand:wikidata": "Q2940187", "brand:wikipedia": "fr:Carrefour City", "check_date": "2026-02-13", "contact:website": "https://www.carrefour.fr/magasin/city-paris-fontaine-au-roi", "internet_access": "no", "level": "0", "name": "Carrefour City", "opening_hours": "Mo-Sa 07:00-22:00; Su 09:00-13:00", "operator": "Groupe Carrefour", "operator:wikidata": "Q3117359", "operator:wikipedia": "fr:Groupe Carrefour", "organic": "yes", "payment:mastercard": "yes", "payment:visa": "yes", "phone": "+33 1 49 23 53 96", "shop": "convenience", "stroller": "yes", "wheelchair": "yes"}}, {"type": "node", "id": 417926266, "lat": 48.8452423, "lon": 2.4347346, "tags": {"brand": "Naturalia", "brand:wikidata": "Q3337081", "brand:wikipedia": "fr:Naturalia", "diet:kosher": "no", "email": "vincennes.chateau@naturalia.fr", "name": "Naturalia", "opening_hours": "Mo-Sa 09:00-20:45; Su 09:00-12:45", "operator": "Groupe Casino", "organic": "only", "phone": "+33 1 41 74 86 82", "ref:FR:SIRET": "30247464801175", "shop": "supermarket", "website": "https://magasins.naturalia.fr/naturalia/fr/store/france/ile-de-france/val-de-marne/vincennes/vincennes-chateau/3918", "wheelchair": "yes"}}, {"type": "node", "id": 418061334, "lat": 48.8668657, "lon": 2.36718, "tags": {"brand": "Carrefour City", "brand:wikidata": "Q2940187", "check_date": "2025-07-08", "name": "Carrefour City", "shop": "convenience", "website": "https://www.carrefour.fr/magasin/city-paris-malte"}}, {"type": "node", "id": 418077552, "lat": 48.86625, "lon": 2.3794293, "tags": {"addr:postcode": "75011", "addr:street": "Rue Oberkampf", "brand": "Casino", "brand:wikidata": "Q89029184", "name": "Casino", "opening_hours": "24/7", "operator": "Casino", "shop": "supermarket", "source": "survey"}}, {"type": "node", "id": 418510262, "lat": 48.8321107, "lon": 2.3224346, "tags": {"brand": "CocciMarket", "brand:wikidata": "Q90020480", "name": "CocciMarket", "opening_hours": "Mo-Su 08:00-02:00", "shop": "convenience", "wheelchair": "yes"}}, {"type": "node", "id": 426119350, "lat": 48.8321341, "lon": 2.3623851, "tags": {"brand": "Carrefour Market", "brand:wikidata": "Q2689639", "brand:wikipedia": "fr:Carrefour Market", "level": "0", "name": "Carrefour Market", "opening_hours": "Mo-Sa 08:30-21:30; Su 09:00-19:30", "operator": "Groupe Carrefour", "operator:wikidata": "Q3117359", "operator:wikipedia": "fr:Groupe Carrefour", "organic": "yes", "phone": "+33 1 45 84 61 24", "shop": "convenience", "toilets": "no", "website": "https://www.carrefour.fr/magasin/market-paris-nationale", "wheelchair": "yes"}}, {"type": "node", "id": 428032271, "lat": 48.8485694, "lon": 2.3787232, "tags": {"addr:city": "Paris", "addr:housenumber": "15", "addr:postcode": "75012", "addr:street": "Place d'Aligre", "check_date": "2024-11-14", "name": "Top Asia", "payment:cash": "yes", "payment:credit_cards": "yes", "payment:debit_cards": "yes", "shop": "supermarket"}}, {"type": "node", "id": 428060860, "lat": 48.8480244, "lon": 2.3774777, "tags": {"brand": "Franprix", "brand:wikidata": "Q2420096", "brand:wikipedia": "fr:Franprix", "check_date:opening_hours": "2022-04-18", "name": "Franprix", "opening_hours": "Mo-Sa 09:00-21:00; Su 09:00-13:00", "operator": "Groupe Casino", "shop": "convenience", "website": "https://www.franprix.fr/magasins/5345", "wheelchair": "yes"}}, {"type": "node", "id": 428144809, "lat": 48.8646253, "lon": 2.3555277, "tags": {"brand": "Naturalia", "brand:wikidata": "Q3337081", "brand:wikipedia": "fr:Naturalia", "check_date": "2025-08-23", "name": "Naturalia", "opening_hours": "Mo-Sa 10:00-20:45; Su 09:00-19:30", "operator": "Groupe Casino", "organic": "only", "phone": "+33 1 42 74 40 03", "shop": "supermarket", "website": "https://naturalia.fr/", "wheelchair": "yes"}}, {"type": "node", "id": 437588302, "lat": 48.7798843, "lon": 2.3141078, "tags": {"brand": "Monoprix", "brand:wikidata": "Q3321241", "brand:wikipedia": "fr:Monoprix (France)", "name": "Monoprix", "opening_hours": "Mo-Sa 08:00-20:45; Su 09:00-19:30", "operator": "Groupe Casino", "phone": "+33 1 46 61 31 60", "shop": "supermarket", "website": "https://www.monoprix.fr/772.html"}}, {"type": "node", "id": 441579641, "lat": 48.8273972, "lon": 2.1182028, "tags": {"brand": "Monoprix", "brand:wikidata": "Q3321241", "brand:wikipedia": "fr:Monoprix (France)", "name": "Monoprix", "opening_hours": "Mo-Sa 08:30-20:45; Su 08:30-12:35", "operator": "Groupe Casino", "phone": "+33 1 39 54 33 22", "shop": "supermarket", "source": "survey", "website": "https://www.monoprix.fr/52.html"}}, {"type": "node", "id": 441768232, "lat": 48.8424285, "lon": 2.1992916, "tags": {"check_date": "2025-07-30", "name": "Sitis Market", "opening_hours": "08:00-22:00", "phone": "+33 1 55 57 08 04", "post_office": "post_partner", "post_office:service_provider": "Mondial Relay", "post_office:service_provider:wikidata": "Q3320547", "ref:FR:SIRET": "81995644200027", "ref:mondial_relay": "FR-00099", "shop": "convenience"}}, {"type": "node", "id": 442110686, "lat": 48.810919, "lon": 2.3847431, "tags": {"addr:city": "Ivry-sur-Seine", "addr:housenumber": "22", "addr:postcode": "94200", "addr:street": "Promen\u00e9e Marat", "brand": "Carrefour Market", "brand:wikidata": "Q2689639", "brand:wikipedia": "fr:Carrefour Market", "contact:phone": "+33145211515", "name": "Carrefour Market", "opening_hours": "Mo-Sa 08:00-20:30; Su 09:00-12:30", "operator": "Carrefour", "ref:FR:SIRET": "88242413800015", "shop": "convenience", "website": "https://www.carrefour.fr/magasin/market-ivry-sur-seine", "wheelchair": "yes"}}, {"type": "node", "id": 442110687, "lat": 48.8119704, "lon": 2.3849919, "tags": {"addr:city": "Ivry-sur-Seine", "addr:housenumber": "96", "addr:postcode": "94200", "addr:street": "Avenue Georges Gosnat", "branch": "NATURALIA IVRY SUR SEINE", "brand": "Naturalia", "brand:wikidata": "Q3337081", "bulk_purchase": "yes", "contact:facebook": "https://www.facebook.com/Naturaliamagasinsbio/", "contact:twitter": "_naturalia", "level": "0", "name": "Naturalia", "opening_hours": "Mo-Sa 09:00-20:00; Su 09:00-12:45", "operator": "Naturalia", "organic": "only", "payment:cash": "yes", "payment:debit_cards": "yes", "payment:mastercard": "yes", "payment:visa": "yes", "phone": "+33 1 78 81 00 42", "ref:FR:SIRET": "30247464802421", "shop": "supermarket", "toilets": "no", "website": "https://magasins.naturalia.fr/naturalia/fr/store/france/ile-de-france/val-de-marne/ivry-sur-seine/ivry-sur-seine/4079", "wheelchair": "yes"}}, {"type": "node", "id": 442547234, "lat": 48.8690474, "lon": 2.3715118, "tags": {"brand": "Carrefour Express", "brand:wikidata": "Q2940190", "brand:wikipedia": "fr:Carrefour Express", "check_date": "2026-04-09", "internet_access": "no", "level": "0", "name": "Carrefour Express", "opening_hours": "Mo-Sa 08:00-23:00; Su 09:00-23:00", "operator": "Groupe Carrefour", "operator:wikidata": "Q3117359", "operator:wikipedia": "fr:Groupe Carrefour", "payment:credit_cards": "yes", "payment:mastercard": "yes", "payment:visa": "yes", "phone": "+33 1 48 07 86 56", "shop": "convenience", "website": "https://www.carrefour.fr/magasin/express-paris-parmentier-125", "wheelchair": "yes"}}, {"type": "node", "id": 446144216, "lat": 48.814414, "lon": 2.2867588, "tags": {"addr:city": "Malakoff", "addr:housenumber": "29", "addr:postcode": "92240", "addr:street": "Boulevard de Stalingrad", "brand": "Carrefour Express", "brand:wikidata": "Q2940190", "brand:wikipedia": "fr:Carrefour Express", "name": "Carrefour Express", "opening_hours": "Mo-Sa 08:00-21:00, Su 09:00-13:00", "operator": "Carrefour", "phone": "+33 1 46 55 69 32", "shop": "convenience", "website": "https://www.carrefour.fr/magasin/express-malakoff"}}, {"type": "node", "id": 447773449, "lat": 48.8174554, "lon": 2.3187676, "tags": {"brand": "Franprix", "brand:wikidata": "Q2420096", "brand:wikipedia": "fr:Franprix", "check_date": "2026-02-14", "contact:housenumber": "56", "contact:postcode": "92120", "contact:street": "Place du Mar\u00e9chal Leclerc", "name": "Franprix", "network": "Auchan", "opening_hours": "Mo-Sa 07:30-21:00; Su 09:00-13:00", "payment:cash": "yes", "payment:contactless": "yes", "payment:mastercard": "yes", "payment:visa": "yes", "shop": "convenience", "website": "https://www.franprix.fr/magasins/1044", "wheelchair": "yes"}}, {"type": "node", "id": 448819325, "lat": 48.816795, "lon": 2.3216547, "tags": {"brand": "U Express", "brand:wikidata": "Q2529029", "brand:wikipedia": "en:Syst\u00e8me U", "check_date": "2024-04-20", "level": "0", "name": "U Express", "opening_hours": "Mo-Sa 08:00-21:00; Su 09:00-21:00", "operator": "Syst\u00e8me U", "operator:type": "private", "payment:cash": "yes", "payment:credit_cards": "yes", "payment:debit_cards": "yes", "phone": "+33 1 40 92 77 60", "shop": "supermarket", "website": "https://www.magasins-u.com/magasin/uexpress-montrouge", "wheelchair": "yes"}}, {"type": "node", "id": 449089446, "lat": 48.8109713, "lon": 2.3145574, "tags": {"branch": "Montrouge Moli\u00e8re", "brand": "Auchan Supermarch\u00e9", "brand:wikidata": "Q105857776", "check_date": "2026-04-17", "contact:housenumber": "35", "contact:postcode": "92120", "contact:street": "Rue Moli\u00e8re", "delivery": "yes", "internet_access": "wlan", "name": "Auchan Supermarch\u00e9", "official_name": "Auchan Supermarch\u00e9", "opening_hours": "Mo-Sa 09:00-21:00; Su 09:00-12:30,13:00-20:30", "operator": "Auchan Supermarch\u00e9", "operator:type": "private", "payment:cash": "interval Mo-Sa 09:00-21:00;Su 09:00-12:30", "shop": "supermarket", "short_name": "Auchan", "source": "survey", "wheelchair": "limited"}}, {"type": "node", "id": 450721863, "lat": 48.8363475, "lon": 2.2815351, "tags": {"addr:postcode": "75015", "brand": "Intermarch\u00e9", "brand:wikidata": "Q3153200", "name": "Intermarch\u00e9", "phone": "+33 144250400", "shop": "supermarket", "website": "https://www.intermarche.com/magasins/10681/paris-75015/infos-pratiques", "wheelchair": "limited"}}, {"type": "node", "id": 451011911, "lat": 48.8211089, "lon": 2.4137767, "tags": {"brand": "Monoprix", "brand:wikidata": "Q3321241", "brand:wikipedia": "fr:Monoprix (France)", "contact:housenumber": "75", "contact:street": "Rue de Paris", "name": "Monoprix", "opening_hours": "Mo-Sa 08:00-21:45; Su 09:00-19:30", "operator": "Groupe Casino", "phone": "+33 1 43 68 14 55", "ref:FR:SIRET": "55208329701042", "shop": "supermarket", "website": "https://www.monoprix.fr/323.html", "wheelchair": "yes"}}, {"type": "node", "id": 462133621, "lat": 48.8269726, "lon": 2.2775317, "tags": {"brand": "Monoprix", "brand:wikidata": "Q3321241", "brand:wikipedia": "fr:Monoprix (France)", "fax": "+33141097816", "name": "Monoprix", "old_name": "Inno", "opening_hours": "Mo-Sa 09:00-22:00; Su 09:00-13:00", "operator": "Groupe Casino", "phone": "+33141097815", "shop": "supermarket", "website": "https://www.monoprix.fr/1266.html", "wheelchair": "yes"}}, {"type": "node", "id": 466373802, "lat": 48.8072273, "lon": 2.4718433, "tags": {"addr:housenumber": "3", "brand": "G20", "brand:wikidata": "Q3504731", "brand:wikipedia": "fr:Supermarch\u00e9s G20", "delivery": "yes", "name": "G20", "opening_hours": "Mo-Fr 08:30-13:30,15:00-21:00; Sa 08:30-13:30,15:00-20:00; Su 09:00-13:30", "operator": "G20", "phone": "+33145112913", "ref:FR:SIRET": "38350574000019", "shop": "supermarket", "wheelchair": "yes"}}, {"type": "node", "id": 467750408, "lat": 48.8284241, "lon": 2.2731806, "tags": {"addr:housenumber": "19", "addr:street": "Boulevard des Fr\u00e8res Voisin", "brand": "Franprix", "brand:wikidata": "Q2420096", "brand:wikipedia": "fr:Franprix", "name": "Franprix", "opening_hours": "Mo-Sa 07:00-22:00; Su 08:00-21:00", "operator": "Groupe Casino", "shop": "convenience", "source": "cadastre-dgi-fr source : Direction G\u00e9n\u00e9rale des Imp\u00f4ts - Cadastre. Mise \u00e0 jour : 2009", "website": "https://www.franprix.fr/magasins/4312"}}, {"type": "node", "id": 469720206, "lat": 48.8335637, "lon": 2.3217193, "tags": {"addr:housenumber": "15", "addr:postcode": "75014", "addr:street": "Rue Didot", "brand": "Intermarch\u00e9 Express", "brand:wikidata": "Q98278043", "check_date:opening_hours": "2026-03-17", "name": "Intermarch\u00e9 Express", "opening_hours": "Mo-Sa 08:00-21:00; Su 09:00-21:00", "organic": "yes", "payment:cards": "yes", "payment:cash": "yes", "payment:qr_code": "no", "phone": "+33 1 45 43 73 89", "shop": "convenience", "website": "https://www.intermarche.com/magasins/10032/paris-75014/infos-pratiques", "wheelchair": "yes"}}, {"type": "node", "id": 469881673, "lat": 48.8077989, "lon": 2.3317034, "tags": {"addr:housenumber": "29", "addr:postcode": "94110", "addr:street": "Avenue Laplace", "brand": "Franprix", "brand:wikidata": "Q2420096", "level": "0", "name": "Franprix", "opening_hours": "Mo-Sa 07:30-21:00, 09:00-18:00; Su 09:00-21:00", "operator": "Groupe Casino", "shop": "convenience", "website": "https://www.franprix.fr/magasins/4191", "wheelchair": "limited"}}, {"type": "node", "id": 469974649, "lat": 48.8410504, "lon": 2.394404, "tags": {"addr:city": "Paris", "addr:housenumber": "121", "addr:postcode": "75012", "addr:street": "Rue de Reuilly", "branch": "Paris Reuilly", "brand": "Auchan Supermarch\u00e9", "brand:wikidata": "Q105857776", "name": "Auchan Supermarch\u00e9", "opening_hours": "Mo-Sa 08:30-21:30; Su 09:00-12:30,13:00-20:30", "operator": "Auchan", "organic": "yes", "phone": "+33 1 43 46 91 55", "ref:FR:SIRET": "41040901500527", "shop": "supermarket", "toilets:wheelchair": "yes", "website": "https://www.auchan.fr/magasins/supermarche/supermarche-paris-reuilly/s-1106", "wheelchair": "yes"}}, {"type": "node", "id": 469986301, "lat": 48.8377287, "lon": 2.4014374, "tags": {"addr:housenumber": "114", "addr:street": "Rue de Picpus", "branch": "Picpus", "brand": "Monoprix", "brand:wikidata": "Q3321241", "brand:wikipedia": "en:Monoprix", "check_date": "2025-10-04", "check_date:opening_hours": "2025-10-04", "name": "Monoprix", "opening_hours": "Mo-Sa 08:00-22:00; Su 08:00-20:00", "operator": "Groupe Casino", "phone": "+33 1 43 43 40 03", "ref:FR:SIRET": "55208329701224", "shop": "supermarket", "website": "https://www.monoprix.fr/58.html"}}, {"type": "node", "id": 470572045, "lat": 48.8351529, "lon": 2.3027945, "tags": {"brand": "Carrefour Market", "brand:wikidata": "Q2689639", "brand:wikipedia": "fr:Carrefour Market", "name": "Carrefour Market", "opening_hours": "Mo-Sa 09:00-21:30; Su 09:00-19:30", "operator": "Carrefour", "organic": "yes", "phone": "+33 1 45 33 60 98", "ref:FR:SIRET": "44028375205514", "shop": "convenience", "toilets": "no", "website": "https://www.carrefour.fr/magasin/market-paris-vouille", "wheelchair": "yes"}}, {"type": "node", "id": 471549756, "lat": 48.841195, "lon": 2.47223, "tags": {"brand": "Coccinelle Supermarch\u00e9", "brand:wikidata": "Q17561658", "name": "Coccinelle Supermarch\u00e9", "opening_hours": "Mo-Fr 08:30-12:30,15:00-19:30; Sa 08:30-19:30; Su 09:00-12:30", "shop": "convenience", "wheelchair": "limited"}}, {"type": "node", "id": 471987282, "lat": 48.8352232, "lon": 2.474078, "tags": {"addr:city": "Nogent-sur-Marne", "addr:housenumber": "2", "addr:postcode": "94130", "addr:street": "Grande Rue Charle de Gaulle 94130", "brand": "Carrefour City", "brand:wikidata": "Q2940187", "brand:wikipedia": "fr:Carrefour City", "name": "Carrefour City", "opening_hours": "Mo-Sa 07:00-22:00; Su 09:00-13:00", "operator": "Carrefour", "phone": "+33 1 48 77 01 71", "shop": "convenience", "website": "https://www.carrefour.fr/magasin/city-nogent-sur-marne"}}, {"type": "node", "id": 472351945, "lat": 48.8357133, "lon": 2.4054545, "tags": {"brand": "Franprix", "brand:wikidata": "Q2420096", "brand:wikipedia": "fr:Franprix", "check_date": "2025-12-30", "check_date:opening_hours": "2025-12-30", "name": "Franprix", "opening_hours": "Mo-Sa 08:00-21:45; Su 09:00-19:00", "operator": "Groupe Casino", "ref:FR:SIRET": "88460673200011", "shop": "convenience", "website": "https://www.franprix.fr/magasins/4412", "wheelchair": "yes"}}, {"type": "node", "id": 473429877, "lat": 48.8049017, "lon": 2.4870869, "tags": {"brand": "Franprix", "brand:wikidata": "Q2420096", "brand:wikipedia": "fr:Franprix", "name": "Franprix", "opening_hours": "Mo-Sa 08:15-20:00; Su 09:00-12:00", "operator": "Groupe Casino", "shop": "convenience", "survey:date": "2017-07-06", "website": "https://www.franprix.fr/magasins/5541", "wheelchair": "yes"}}, {"type": "node", "id": 473838056, "lat": 48.8357051, "lon": 2.3963787, "tags": {"brand": "Carrefour City", "brand:wikidata": "Q2940187", "brand:wikipedia": "fr:Carrefour City", "check_date": "2025-10-01", "contact:city": "Paris", "contact:housenumber": "36-44", "contact:postcode": "75012", "contact:street": "Rue de Wattignies", "contact:website": "https://www.carrefour.fr/magasin/city-paris-wattignies", "name": "Carrefour City", "opening_hours": "Mo-Sa 07:00-22:00; Su 09:00-21:00", "operator": "Groupe Carrefour", "operator:wikidata": "Q3117359", "operator:wikipedia": "fr:Groupe Carrefour", "phone": "+33 1 43 31 50 10", "ref:FR:SIRET": "80486503800025", "shop": "convenience", "source": "www.carrefour.fr", "wheelchair": "limited"}}, {"type": "node", "id": 473838062, "lat": 48.8343203, "lon": 2.3972498, "tags": {"addr:housenumber": "29", "addr:postcode": "75012", "addr:street": "Rue des Meuniers", "brand": "Franprix", "brand:wikidata": "Q2420096", "brand:wikipedia": "fr:Franprix", "check_date": "2026-04-18", "check_date:opening_hours": "2026-04-18", "internet_access": "no", "name": "Franprix", "opening_hours": "Mo-Sa 07:30-23:00; Su 09:00-21:00", "operator": "Groupe Casino", "payment:cash": "yes", "payment:credit_cards": "yes", "payment:debit_cards": "yes", "ref:FR:SIRET": "43900300500014", "shop": "convenience", "website": "https://www.franprix.fr/magasins/5310", "wheelchair": "yes"}}, {"type": "node", "id": 476311623, "lat": 48.8378906, "lon": 2.2979809, "tags": {"brand": "Carrefour City", "brand:wikidata": "Q2940187", "contact:city": "Paris", "contact:housenumber": "1", "contact:postcode": "75015", "contact:street": "Rue Victor Duruy", "name": "Carrefour City", "shop": "convenience", "website": "https://www.carrefour.fr/magasin/city-paris-vaugirard-327"}}, {"type": "node", "id": 480680110, "lat": 48.8299505, "lon": 2.3776687, "tags": {"brand": "Monoprix", "brand:wikidata": "Q3321241", "brand:wikipedia": "en:Monoprix", "check_date:opening_hours": "2025-12-10", "level": "0", "name": "Monoprix", "opening_hours": "Mo-Sa 08:00-21:00, Su 09:00-20:00", "operator": "Groupe Casino", "organic": "yes", "phone": "+33 1 44 23 06 60", "shop": "supermarket", "toilets": "no", "website": "https://www.monoprix.fr/1285.html", "wheelchair": "yes"}}, {"type": "node", "id": 480755468, "lat": 48.6164685, "lon": 2.506448}, {"type": "node", "id": 480755469, "lat": 48.6165099, "lon": 2.5061448}, {"type": "node", "id": 480755472, "lat": 48.6164892, "lon": 2.5063846}, {"type": "node", "id": 480755473, "lat": 48.6164428, "lon": 2.506351}, {"type": "node", "id": 480755474, "lat": 48.6161293, "lon": 2.505963}, {"type": "node", "id": 480755475, "lat": 48.616069, "lon": 2.5061481}, {"type": "node", "id": 480755478, "lat": 48.6161402, "lon": 2.5058453}, {"type": "node", "id": 480755479, "lat": 48.6161076, "lon": 2.5059467}, {"type": "node", "id": 480755482, "lat": 48.6162324, "lon": 2.5059391}, {"type": "node", "id": 480755483, "lat": 48.6162394, "lon": 2.5059182}, {"type": "node", "id": 486592818, "lat": 48.8269217, "lon": 2.3424795, "tags": {"brand": "Franprix", "brand:wikidata": "Q2420096", "brand:wikipedia": "fr:Franprix", "name": "Franprix", "opening_hours": "Mo-Fr 07:30-21:00; Sa 07:30-17:30; Su 09:00-20:00", "operator": "Groupe Casino", "phone": "+33 9 70 17 14 14", "shop": "convenience", "website": "https://www.franprix.fr/magasins/5486"}}, {"type": "node", "id": 486592853, "lat": 48.82682, "lon": 2.3384839, "tags": {"brand": "Carrefour Express", "brand:wikidata": "Q2940190", "name": "Carrefour Express", "opening_hours": "Mo-Sa 08:00-22:00; Su 09:00-13:00", "shop": "convenience", "website": "https://www.carrefour.fr/magasin/express-paris-alesia-7", "wheelchair": "yes"}}, {"type": "node", "id": 486592888, "lat": 48.8259414, "lon": 2.3467822, "tags": {"branch": "Paris - Tolbiac", "brand": "Auchan Supermarch\u00e9", "brand:wikidata": "Q105857776", "changing_table": "limited", "level": "0", "name": "Auchan Supermarch\u00e9", "opening_hours": "Mo-Sa 08:00-21:30; Su 08:30-12:30,13:00-20:30", "organic": "yes", "shop": "supermarket", "toilets": "no", "wheelchair": "yes"}}, {"type": "node", "id": 486592921, "lat": 48.8284354, "lon": 2.3440973, "tags": {"brand": "Monoprix", "brand:wikidata": "Q3321241", "brand:wikipedia": "fr:Monoprix (France)", "level": "0", "name": "Monoprix", "opening_hours": "Mo-Sa 09:00-23:30, Su 09:00-19:00", "operator": "Groupe Casino", "organic": "yes", "phone": "+33 1 45 80 75 90", "shop": "supermarket", "toilets": "no", "website": "https://www.monoprix.fr/465.html", "wheelchair": "yes"}}, {"type": "node", "id": 492901366, "lat": 48.7698641, "lon": 2.3162325, "tags": {"branch": "Antony Fontaine", "brand": "Auchan Supermarch\u00e9", "brand:wikidata": "Q105857776", "name": "Auchan Supermarch\u00e9", "opening_hours": "Mo-Sa 08:30-20:30; Su 09:00-13:00", "operator": "Auchan Supermarch\u00e9", "shop": "supermarket", "source": "cadastre-dgi-fr source : Direction G\u00e9n\u00e9rale des Imp\u00f4ts - Cadastre;mise \u00e0 jour : 2008"}}, {"type": "node", "id": 493554431, "lat": 48.8150056, "lon": 2.419777, "tags": {"branch": "Maisons-Alfort Bourgelat", "brand": "Auchan Supermarch\u00e9", "brand:wikidata": "Q105857776", "check_date": "2025-10-29", "check_date:opening_hours": "2025-10-29", "name": "Auchan Supermarch\u00e9", "opening_hours": "Mo-Sa 08:30-21:00; Su 08:30-12:30,13:00-20:00", "operator": "Auchan Supermarch\u00e9", "ref:FR:SIRET": "98489329700064", "shop": "supermarket", "source:opening_hours": "entrance", "website": "https://www.auchan.fr/magasins/supermarche/auchan-supermarche-maisons-alfort/s-409", "wheelchair": "yes"}}, {"type": "node", "id": 493729432, "lat": 48.8395966, "lon": 2.4017107, "tags": {"addr:housenumber": "16", "addr:postcode": "75012", "addr:street": "Rue Louis Braille", "brand": "Aldi", "brand:wikidata": "Q41171373", "check_date": "2025-10-04", "name": "Aldi", "opening_hours": "Mo-Sa 08:00-21:00; Su 08:30-12:30", "payment:cash": "yes", "payment:credit_cards": "yes", "payment:debit_cards": "yes", "phone": "+33 9 77 40 40 44", "ref:FR:SIRET": "87918973600447", "shop": "supermarket", "website": "https://www.aldi.fr/magasins-et-horaires-d-ouverture.html/l/paris/16-rue-louis-braille/3435072"}}, {"type": "node", "id": 493809023, "lat": 48.8690504, "lon": 2.2247396, "tags": {"addr:city": "Suresnes", "addr:housenumber": "4", "addr:postcode": "92150", "addr:street": "All\u00e9e Jules Ferry", "brand": "Carrefour Market", "brand:wikidata": "Q2689639", "brand:wikipedia": "fr:Carrefour Market", "check_date:opening_hours": "2022-08-10", "name": "Carrefour Market", "opening_hours": "Mo-Sa 08:00-21:00; Su 09:00-13:00", "operator": "Carrefour", "phone": "+33 1 45 06 28 00", "shop": "supermarket", "website": "https://www.carrefour.fr/magasin/market-suresnes-ferry", "wheelchair": "yes"}}, {"type": "node", "id": 494225703, "lat": 48.8262033, "lon": 2.3651094, "tags": {"brand": "Franprix", "brand:wikidata": "Q2420096", "brand:wikipedia": "fr:Franprix", "layer": "2", "level": "2", "name": "Franprix", "opening_hours": "Mo-Sa 08:00-21:00; Su 09:00-21:00", "operator": "Groupe Casino", "shop": "convenience", "source": "cadastre-dgi-fr source : Direction G\u00e9n\u00e9rale des Imp\u00f4ts - Cadastre. Mise \u00e0 jour : 2009", "toilets": "no", "website": "https://www.franprix.fr/magasins/4254", "wheelchair": "yes"}}, {"type": "node", "id": 494654452, "lat": 48.7164431, "lon": 2.0854708, "tags": {"brand": "Carrefour Market", "brand:wikidata": "Q2689639", "brand:wikipedia": "fr:Carrefour Market", "check_date:opening_hours": "2021-05-02", "name": "Carrefour Market", "opening_hours": "Mo-Sa 08:30-20:00; Su 08:45-12:45", "operator": "Carrefour", "phone": "+33 1 30 52 60 50", "shop": "convenience", "website": "https://www.carrefour.fr/magasin/market-saint-remy-les-chevreuse", "wheelchair": "yes"}}, {"type": "node", "id": 494658036, "lat": 48.8313155, "lon": 2.3153662, "tags": {"branch": "Paris Al\u00e9sia", "brand": "Auchan Supermarch\u00e9", "brand:wikidata": "Q105857776", "check_date:opening_hours": "2024-06-01", "name": "Auchan Supermarch\u00e9", "opening_hours": "Mo-Sa 08:00-21:30; Su 09:00-12:30,13:00-20:30", "shop": "supermarket", "wheelchair": "yes"}}, {"type": "node", "id": 496114762, "lat": 48.8646989, "lon": 2.3689158, "tags": {"branch": "Crussol", "brand": "Naturalia", "brand:wikidata": "Q3337081", "brand:wikipedia": "fr:Naturalia", "check_date": "2025-08-03", "email": "crussol@naturalia.fr", "name": "Naturalia", "opening_hours": "Mo-Sa 09:00-20:45; Su 09:00-12:45", "operator": "Naturalia", "organic": "only", "phone": "+33 1 78 91 03 54", "shop": "supermarket", "website": "https://magasins.naturalia.fr/naturalia/fr/store/france/ile-de-france/paris/paris/crussol/3919"}}, {"type": "node", "id": 496122162, "lat": 48.8595538, "lon": 2.3756962, "tags": {"addr:city": "Paris", "addr:housenumber": "47", "addr:postcode": "75011", "addr:street": "Rue Popincourt", "brand": "Franprix", "brand:wikidata": "Q2420096", "brand:wikipedia": "fr:Franprix", "check_date": "2024-07-21", "name": "Franprix", "opening_hours": "Mo-Sa 07:30-22:00; Su 09:00-13:00", "operator": "Groupe Casino", "shop": "convenience", "website": "https://www.franprix.fr/magasins/8043"}}, {"type": "node", "id": 500255554, "lat": 48.8386288, "lon": 2.3898798, "tags": {"brand": "Monoprix", "brand:wikidata": "Q3321241", "brand:wikipedia": "fr:Monoprix (France)", "check_date": "2025-10-13", "name": "Monoprix", "opening_hours": "Mo-Sa 09:00-22:00; Su 09:00-12:45", "operator": "Groupe Casino", "phone": "+33 1 43 07 57 60", "ref:FR:SIRET": "55208329701513", "shop": "supermarket", "source": "survey", "website": "https://www.monoprix.fr/848.html"}}, {"type": "node", "id": 503047787, "lat": 48.8217647, "lon": 2.3679348}, {"type": "node", "id": 503047790, "lat": 48.8220413, "lon": 2.3677892}, {"type": "node", "id": 508588020, "lat": 48.8490537, "lon": 2.3788229, "tags": {"brand": "Franprix", "brand:wikidata": "Q2420096", "brand:wikipedia": "fr:Franprix", "check_date": "2025-12-30", "name": "Franprix", "note:fr": "Grand Franprix, disposant d'une boucherie", "opening_hours": "Mo-Sa 07:30-22:00; Su 09:00-20:30", "operator": "Groupe Casino", "phone": "+33 9 70 17 12 00", "ref:FR:SIRET": "35352065300018", "shop": "convenience", "website": "https://www.franprix.fr/magasins/8054", "wheelchair": "yes"}}, {"type": "node", "id": 508588036, "lat": 48.846186, "lon": 2.3882212, "tags": {"brand": "Monoprix", "brand:wikidata": "Q3321241", "brand:wikipedia": "en:Monoprix", "check_date": "2025-11-21", "check_date:opening_hours": "2025-11-21", "name": "Monoprix", "opening_hours": "Mo-Sa 08:00-20:45; Su 09:00-19:45", "operator": "Groupe Casino", "phone": "+33 1 53 44 76 00", "ref:FR:SIRET": "55208329703139", "shop": "supermarket", "website": "https://www.monoprix.fr/1890.html"}}, {"type": "node", "id": 508588041, "lat": 48.8514693, "lon": 2.3785954, "tags": {"brand": "Franprix", "brand:wikidata": "Q2420096", "brand:wikipedia": "fr:Franprix", "name": "Franprix", "opening_hours": "Mo-Sa 08:30-21:00; Su 09:00-21:00", "operator": "Groupe Casino", "shop": "convenience", "website": "https://www.franprix.fr/magasins/6196"}}, {"type": "node", "id": 508588102, "lat": 48.8437369, "lon": 2.3894677, "tags": {"brand": "Carrefour City", "brand:wikidata": "Q2940187", "check_date": "2025-10-06", "contact:city": "Paris", "contact:housenumber": "47", "contact:postcode": "75012", "contact:street": "Rue Jacques Hillairet", "level": "0;1", "name": "Carrefour City", "opening_hours": "Mo-Sa 07:00-22:00; Su 09:00-13:00", "phone": "+33 1 43 07 46 20", "ref:FR:SIRET": "98067082200017", "shop": "convenience", "source": "survey", "website": "https://www.carrefour.fr/magasin/city-paris-jacques-hillairet-47"}}, {"type": "node", "id": 514752447, "lat": 48.662931, "lon": 2.376408, "tags": {"source": "cadastre-dgi-fr source : Direction G\u00e9n\u00e9rale des Imp\u00f4ts - Cadastre ; mise \u00e0 jour : 2008"}}, {"type": "node", "id": 514752449, "lat": 48.662928, "lon": 2.375897, "tags": {"source": "cadastre-dgi-fr source : Direction G\u00e9n\u00e9rale des Imp\u00f4ts - Cadastre ; mise \u00e0 jour : 2008"}}, {"type": "node", "id": 514752451, "lat": 48.663048, "lon": 2.375401, "tags": {"source": "cadastre-dgi-fr source : Direction G\u00e9n\u00e9rale des Imp\u00f4ts - Cadastre ; mise \u00e0 jour : 2008"}}, {"type": "node", "id": 514752474, "lat": 48.662986, "lon": 2.375657, "tags": {"source": "cadastre-dgi-fr source : Direction G\u00e9n\u00e9rale des Imp\u00f4ts - Cadastre ; mise \u00e0 jour : 2008"}}, {"type": "node", "id": 530272905, "lat": 48.8462369, "lon": 2.3724753, "tags": {"addr:city": "Paris", "brand": "Monop'", "brand:wikidata": "Q89913683", "brand:wikipedia": "fr:Monoprix (France)", "check_date": "2025-12-29", "check_date:opening_hours": "2025-12-29", "name": "Monop'", "opening_hours": "Mo-Sa 07:00-24:00, Su 08:00-21:00", "operator": "Groupe Casino", "ref:FR:SIRET": "44465668000139", "shop": "convenience", "website": "https://www.monoprix.fr/1287.html", "wheelchair": "yes"}}, {"type": "node", "id": 530275192, "lat": 48.8511066, "lon": 2.3763447, "tags": {"brand": "Carrefour City", "brand:wikidata": "Q2940187", "brand:wikipedia": "fr:Carrefour City", "check_date": "2025-11-04", "name": "Carrefour City", "opening_hours": "Mo-Sa 07:00-22:00; Su 09:00-13:00", "operator": "Groupe Carrefour", "operator:wikidata": "Q3117359", "operator:wikipedia": "fr:Groupe Carrefour", "phone": "+33 9 51 27 26 10", "ref:FR:SIRET": "84417922600023", "shop": "convenience", "website": "https://www.carrefour.fr/magasin/city-paris-faubourg-saint-antoine-100", "wheelchair": "limited"}}, {"type": "node", "id": 530275193, "lat": 48.8491029, "lon": 2.3730017, "tags": {"brand": "Franprix", "brand:wikidata": "Q2420096", "brand:wikipedia": "fr:Franprix", "name": "Franprix", "opening_hours": "Mo-Sa 8:00-19:45", "operator": "Franprix", "ref:FR:SIRET": "33463055500038", "shop": "convenience", "website": "https://www.franprix.fr/magasins/6241", "wheelchair": "yes"}}, {"type": "node", "id": 531496067, "lat": 48.8477171, "lon": 2.3873421, "tags": {"check_date": "2025-12-28", "check_date:opening_hours": "2025-12-28", "name": "Beyaz", "opening_hours:signed": "no", "ref:FR:SIRET": "89015657300010", "shop": "convenience"}}, {"type": "node", "id": 532261595, "lat": 48.84429, "lon": 2.2852335, "tags": {"check_date": "2025-04-12", "contact:city": "Paris", "contact:housenumber": "93", "contact:postcode": "75015", "contact:street": "Rue de Javel", "name": "Chez Miha", "shop": "convenience"}}, {"type": "node", "id": 533755692, "lat": 48.8234104, "lon": 2.3660411, "tags": {"brand": "Paris Store", "check_date": "2026-04-08", "name": "Paris Store", "opening_hours": "Tu-Th 08:45-19:00; Fr 08:45-19:30; Sa 08:00-19:30; Su 08:00-12:30; Mo 09:30-18:40", "origin": "asian", "shop": "supermarket", "website": "https://paris-store.com/magasins/", "wheelchair": "yes"}}, {"type": "node", "id": 534903720, "lat": 48.8461821, "lon": 2.3751034, "tags": {"brand": "Franprix", "brand:wikidata": "Q2420096", "brand:wikipedia": "fr:Franprix", "check_date": "2025-11-14", "check_date:opening_hours": "2025-11-14", "name": "Franprix", "opening_hours": "Mo-Sa 07:00-22:00; Su 09:00-20:00", "operator": "Franprix", "phone": "+33 1 43 45 43 48", "ref:FR:SIRET": "42350471100015", "shop": "convenience", "website": "https://www.franprix.fr/magasins/6787"}}, {"type": "node", "id": 534910050, "lat": 48.8458636, "lon": 2.3752711, "tags": {"contact:housenumber": "26bis", "contact:street": "Boulevard Diderot", "name": "Gastronom \u211612", "name:ru": "\u0413\u0430\u0441\u0442\u0440\u043e\u043d\u043e\u043c", "phone": "+33143416583", "shop": "convenience"}}, {"type": "node", "id": 542010088, "lat": 48.6228323, "lon": 2.4293272, "tags": {"addr:housenumber": "17", "shop": "convenience"}}, {"type": "node", "id": 549993118, "lat": 48.8201447, "lon": 2.3436484, "tags": {"addr:city": "Paris", "brand": "Franprix", "brand:wikidata": "Q2420096", "brand:wikipedia": "fr:Franprix", "diet:halal": "yes", "diet:kosher": "yes", "name": "Franprix", "opening_hours": "Mo-Sa 07:30-21:00; Su 09:00-13:00", "operator": "Groupe Casino", "phone": "+33 9 70 17 14 14", "shop": "convenience", "website": "https://www.franprix.fr/magasins/4177", "wheelchair": "yes"}}, {"type": "node", "id": 553329948, "lat": 48.7918512, "lon": 2.2856377, "tags": {"addr:city": "Fontenay-aux-Roses", "addr:housenumber": "91", "addr:postcode": "92260", "addr:street": "Rue Boucicaut", "brand": "Carrefour Market", "brand:wikidata": "Q2689639", "brand:wikipedia": "fr:Carrefour Market", "name": "Carrefour Market", "opening_hours": "Mo-Sa 08:30-21:00; Su 08:30-12:45", "operator": "Carrefour", "phone": "+33146603961", "shop": "convenience", "website": "https://www.carrefour.fr/magasin/market-fontenay-aux-roses"}}, {"type": "node", "id": 553497060, "lat": 48.7266618, "lon": 2.2566885, "tags": {"addr:city": "Massy", "addr:housenumber": "23-25", "addr:postcode": "91300", "addr:street": "Place de l'Union Europ\u00e9enne", "branch": "Massy", "brand": "Auchan Supermarch\u00e9", "brand:wikidata": "Q105857776", "brand:wikipedia": "fr:Auchan Supermarch\u00e9", "check_date:opening_hours": "2024-05-12", "contact:phone": "+33 1 64 86 19 10", "name": "Auchan Supermarch\u00e9", "opening_hours": "Mo-Sa 08:30-21:00; Su 08:30-12:30,13:00-19:30", "operator": "Auchan", "payment:cash": "yes", "payment:contactless": "yes", "payment:visa": "yes", "ref:FR:SIRET": "41040901503257", "shop": "supermarket", "website": "https://www.auchan.fr/magasins/supermarche-massy/sl-1333", "wheelchair": "yes"}}, {"type": "node", "id": 553525467, "lat": 48.8370665, "lon": 2.481461, "tags": {"brand": "G20", "brand:wikidata": "Q3504731", "brand:wikipedia": "fr:Supermarch\u00e9s G20", "name": "G20", "operator": "G20", "shop": "supermarket"}}, {"type": "node", "id": 553525669, "lat": 48.8381326, "lon": 2.4914716, "tags": {"branch": "Nogent-sur-Marne", "brand": "Monoprix", "brand:wikidata": "Q3321241", "brand:wikipedia": "en:Monoprix", "name": "Monoprix", "opening_hours": "Mo-Sa 08:30-20:30; Su 08:30-10:50", "operator": "Groupe Casino", "phone": "+33 1 48 71 03 06", "shop": "supermarket", "website": "https://www.monoprix.fr/892.html", "wheelchair": "limited"}}, {"type": "node", "id": 553525882, "lat": 48.8378804, "lon": 2.4832945, "tags": {"addr:city": "Nogent-sur-Marne", "addr:housenumber": "21", "addr:postcode": "94130", "addr:street": "Rue des H\u00e9ros Nogentais", "brand": "Franprix", "brand:wikidata": "Q2420096", "brand:wikipedia": "fr:Franprix", "name": "Franprix", "opening_hours": "Mo-Sa 07:30-21:00; Su 09:00-12:00;", "operator": "Groupe Casino", "phone": "+33 9 70 17 12 00", "shop": "convenience", "website": "https://www.franprix.fr/magasins/5573", "wheelchair": "yes"}}, {"type": "node", "id": 553526371, "lat": 48.8411472, "lon": 2.4828124, "tags": {"brand": "Franprix", "brand:wikidata": "Q2420096", "brand:wikipedia": "fr:Franprix", "level": "0", "name": "Franprix", "opening_hours": "Mo-Sa 09:00-20:00; Su 09:00-13:00", "operator": "Casino", "shop": "convenience", "toilets": "no", "website": "https://www.franprix.fr/magasins/4088", "wheelchair": "yes"}}, {"type": "node", "id": 557008001, "lat": 48.6787376, "lon": 2.3832244}, {"type": "node", "id": 566769730, "lat": 48.6215607, "lon": 2.4899946}, {"type": "node", "id": 566769731, "lat": 48.6214345, "lon": 2.4900385}, {"type": "node", "id": 574558813, "lat": 48.6953598, "lon": 2.504605}, {"type": "node", "id": 574558817, "lat": 48.6949012, "lon": 2.5045716}, {"type": "node", "id": 574558869, "lat": 48.6948972, "lon": 2.5047611}, {"type": "node", "id": 574559862, "lat": 48.6948728, "lon": 2.505139}, {"type": "node", "id": 574559866, "lat": 48.6948612, "lon": 2.5054628}, {"type": "node", "id": 574559869, "lat": 48.6951247, "lon": 2.505489}, {"type": "node", "id": 574559874, "lat": 48.6951693, "lon": 2.505458}, {"type": "node", "id": 574559879, "lat": 48.6951738, "lon": 2.505413}, {"type": "node", "id": 574559882, "lat": 48.6953066, "lon": 2.5053082}, {"type": "node", "id": 574559886, "lat": 48.6948723, "lon": 2.5050858}, {"type": "node", "id": 574845423, "lat": 48.6975662, "lon": 2.5067108}, {"type": "node", "id": 574845424, "lat": 48.6975689, "lon": 2.5068004}, {"type": "node", "id": 574845425, "lat": 48.6974632, "lon": 2.5068141}, {"type": "node", "id": 574845426, "lat": 48.6974593, "lon": 2.5067246}, {"type": "node", "id": 574845492, "lat": 48.6976864, "lon": 2.5073629}, {"type": "node", "id": 574845493, "lat": 48.697655, "lon": 2.5073999}, {"type": "node", "id": 574845495, "lat": 48.6976743, "lon": 2.5073854}, {"type": "node", "id": 574845497, "lat": 48.6976885, "lon": 2.5073332}, {"type": "node", "id": 574845499, "lat": 48.6976546, "lon": 2.5073881}, {"type": "node", "id": 582750092, "lat": 48.8548362, "lon": 2.3059829, "tags": {"addr:city": "Paris", "addr:housenumber": "42", "addr:postcode": "75007", "addr:street": "Avenue de la Motte-Picquet", "brand": "Carrefour City", "brand:wikidata": "Q2940187", "brand:wikipedia": "fr:Carrefour City", "check_date:opening_hours": "2022-12-11", "name": "Carrefour City", "opening_hours": "Mo-Sa 07:00-23:30; Su 09:00-23:30", "operator": "Groupe Carrefour", "operator:wikidata": "Q3117359", "operator:wikipedia": "fr:Groupe Carrefour", "phone": "+33153591200", "shop": "convenience", "website": "https://www.carrefour.fr/magasin/city-ecole-militaire", "wheelchair": "yes"}}, {"type": "node", "id": 583211403, "lat": 48.8471183, "lon": 2.3177609, "tags": {"brand": "G20", "brand:wikidata": "Q3504731", "name": "G20", "operator": "G20", "shop": "supermarket", "wheelchair": "yes"}}, {"type": "node", "id": 587764550, "lat": 48.8414673, "lon": 2.1317475, "tags": {"addr:city": "La Celle-Saint-Cloud", "addr:housenumber": "29", "addr:postcode": "78170", "addr:street": "Avenue Lucien-Ren\u00e9 Duchesne", "brand": "Aldi", "brand:wikidata": "Q41171373", "brand:wikipedia": "fr:Leader Price", "name": "Aldi", "opening_hours": "Mo-Sa 08:30-20:30; Su 08:30-12:30", "operator": "Aldi", "phone": "+33 9 77 40 40 44", "shop": "supermarket", "source": "survey"}}, {"type": "node", "id": 587787919, "lat": 48.8597348, "lon": 2.1482803, "tags": {"addr:postcode": "78170", "addr:street": "\u00c9lys\u00e9e 2", "brand": "Monoprix", "brand:wikidata": "Q3321241", "brand:wikipedia": "fr:Monoprix (France)", "name": "Monoprix", "opening_hours": "Mo-Sa 08:00-21:00; Su 08:00-20:00", "phone": "+33 1 30 08 12 00", "shop": "supermarket", "website": "https://www.monoprix.fr/1831.html"}}, {"type": "node", "id": 589495681, "lat": 48.8548542, "lon": 2.4016977, "tags": {"name": "Produits Exotiques", "shop": "convenience"}}, {"type": "node", "id": 598517939, "lat": 48.8532361, "lon": 2.4827546, "tags": {"addr:postcode": "94120", "branch": "Val de Fontenay", "brand": "Auchan", "brand:wikidata": "Q758603", "brand:wikipedia": "fr:Auchan", "name": "Auchan", "opening_hours": "Mo-Fr 08:30-21:00; Sa 08:00-21:00; Su 08:30-12:30", "operator": "Auchan", "phone": "+33 1 43 94 84 00", "shop": "supermarket", "website": "https://www.auchan.fr/magasins/hypermarche/fontenay-sous-bois/s-9", "wheelchair": "no"}}, {"type": "node", "id": 600738904, "lat": 48.6970724, "lon": 2.1292093}, {"type": "node", "id": 600738905, "lat": 48.6972511, "lon": 2.1291694}, {"type": "node", "id": 600738911, "lat": 48.6971157, "lon": 2.1296547}, {"type": "node", "id": 600738913, "lat": 48.6972945, "lon": 2.1296148}, {"type": "node", "id": 601708519, "lat": 48.7394316, "lon": 2.4260863, "tags": {"addr:city": "Villeneuve-le-Roi", "addr:housenumber": "143", "addr:postcode": "94290", "addr:street": "Rue Eug\u00e9nie Le Guillermic", "name": "Epicerie de la Gare", "shop": "convenience", "source": "cadastre-dgi-fr source : Direction G\u00e9n\u00e9rale des Imp\u00f4ts - Cadastre;mise \u00e0 jour : 2009"}}, {"type": "node", "id": 603124523, "lat": 48.6164736, "lon": 2.5064322}, {"type": "node", "id": 603626714, "lat": 48.6830474, "lon": 2.4313056}, {"type": "node", "id": 608719991, "lat": 48.8176638, "lon": 2.2604606, "tags": {"brand": "Franprix", "brand:wikidata": "Q2420096", "brand:wikipedia": "fr:Franprix", "contact:housenumber": "54", "contact:street": "Rue d'Erevan", "name": "Franprix", "opening_hours": "Mo-Sa 09:00-19:45; Su 09:00-12:45; PH off", "operator": "Groupe Casino", "phone": "+33 1 46 44 04 42", "shop": "convenience", "website": "https://www.franprix.fr/"}}, {"type": "node", "id": 609211315, "lat": 48.8350716, "lon": 2.3853476, "tags": {"brand": "Sitis", "check_date": "2025-10-05", "check_date:opening_hours": "2025-10-05", "level": "0", "name": "Sitis Market", "opening_hours:signed": "no", "ref:FR:SIRET": "95131049900029", "shop": "convenience"}}, {"type": "node", "id": 610911313, "lat": 48.599991, "lon": 2.433781}, {"type": "node", "id": 610911469, "lat": 48.600268, "lon": 2.434223}, {"type": "node", "id": 613186107, "lat": 48.6481342, "lon": 2.1885373, "tags": {"addr:city": "Marcoussis", "addr:postcode": "91460", "address": "N 104 - direction A 10, La Francilienne - Aire du D\u00e9luge", "amenity": "fuel", "brand": "Esso", "brand:wikidata": "Q867662", "compressed_air": "yes", "fuel:diesel": "yes", "fuel:e10": "yes", "fuel:octane_98": "yes", "hgv:lanes": "yes", "name": "Esso", "opening_hours": "24/7", "ref:FR:prix-carburants": "91460013", "shop": "convenience", "source": "Minist\u00e8re de l'Economie, de l'Industrie et du Num\u00e9rique - 03/2020;stations.gpl.online.fr", "toilets": "yes"}}, {"type": "node", "id": 614319058, "lat": 48.8088208, "lon": 2.2978471, "tags": {"addr:postcode": "92320", "branch": "Ch\u00e2tillon", "brand": "Auchan Supermarch\u00e9", "brand:wikidata": "Q105857776", "brand:wikipedia": "fr:Auchan Supermarch\u00e9", "check_date": "2024-07-04", "name": "Auchan Supermarch\u00e9", "opening_hours": "Mo-Sa 08:30-21:00; Su 09:00-12:30,13:00-20:30; PH 09:00-20:00", "payment:cards": "yes", "payment:cash": "interval Mo-Sa 09:00-21:00;Su 09:00-12:30", "payment:contactless": "yes", "phone": "+33 1 42 53 56 95", "shop": "supermarket", "website": "https://www.auchan.fr/magasins/supermarche/auchan-supermarche-chatillon/s-1299", "wheelchair": "limited"}}, {"type": "node", "id": 614445767, "lat": 48.8270785, "lon": 2.3688229, "tags": {"brand": "Naturalia", "brand:wikidata": "Q3337081", "brand:wikipedia": "fr:Naturalia", "bulk_purchase": "yes", "changing_table": "no", "level": "0", "name": "Naturalia", "opening_hours": "Mo-Sa 09:00-20:45, Su 09:00-19:30", "operator": "Groupe Casino", "organic": "only", "phone": "+33 1 58 89 01 84", "shop": "supermarket", "toilets": "no", "website": "https://naturalia.fr/", "wheelchair": "limited"}}, {"type": "node", "id": 616313230, "lat": 48.7039169, "lon": 2.4596253, "tags": {"brand": "Super U", "brand:wikidata": "Q2529029", "brand:wikipedia": "fr:Syst\u00e8me U", "name": "Super U", "operator": "Super U", "shop": "supermarket", "website": "https://www.magasins-u.com/magasin/superu-montgeron.m23468"}}, {"type": "node", "id": 616336710, "lat": 48.7156777, "lon": 2.4448783, "tags": {"brand": "Centre Commercial E. Leclerc", "brand:wikidata": "Q1273376", "brand:wikipedia": "fr:E.Leclerc", "name": "Centre Commercial E. Leclerc", "operator": "E. Leclerc", "shop": "supermarket"}}, {"type": "node", "id": 616353708, "lat": 48.7078576, "lon": 2.4666019, "tags": {"brand": "Carrefour Express", "brand:wikidata": "Q2940190", "brand:wikipedia": "fr:Carrefour Express", "name": "Carrefour Express", "old_name": "DIA", "operator": "Carrefour", "shop": "convenience"}}, {"type": "node", "id": 617047053, "lat": 48.8333174, "lon": 2.3646475, "tags": {"brand": "Monoprix", "brand:wikidata": "Q3321241", "brand:wikipedia": "fr:Monoprix (France)", "name": "Monoprix", "opening_hours": "Mo-Sa 08:00-21:00; Su 08:00-20:00", "operator": "Groupe Casino", "phone": "+33 1 44 23 23 40", "shop": "supermarket", "website": "https://www.monoprix.fr/1888.html", "wheelchair": "yes"}}, {"type": "node", "id": 617271625, "lat": 48.8331196, "lon": 2.3540446, "tags": {"brand": "Carrefour City", "brand:wikidata": "Q2940187", "brand:wikipedia": "fr:Carrefour City", "changing_table": "no", "cuisine": "regional", "level": "0", "name": "Carrefour City", "opening_hours": "Mo-Sa 07:00-22:00, Su 09:00+", "operator": "Groupe Carrefour", "operator:wikidata": "Q3117359", "operator:wikipedia": "fr:Groupe Carrefour", "organic": "yes", "phone": "+33 1 45 70 87 49", "shop": "convenience", "toilets": "no", "website": "https://www.carrefour.fr/magasin/city-paris-gobelins"}}, {"type": "node", "id": 617823571, "lat": 48.8110444, "lon": 2.3055926, "tags": {"name": "Jeddide said", "opening_hours": "Tu-Su,PH 07:00-21:00", "shop": "convenience"}}, {"type": "node", "id": 619656624, "lat": 48.7792569, "lon": 2.3279201, "tags": {"name": "Robinson Market", "phone": "+33149699517", "shop": "convenience"}}, {"type": "node", "id": 619697711, "lat": 48.7793784, "lon": 2.3390453, "tags": {"addr:city": "L'Ha\u00ff-les-Roses", "addr:housenumber": "6", "addr:postcode": "94240", "addr:street": "Rue Dispan", "air_conditioning": "yes", "branch": "Franprix", "brand": "Franprix", "brand:wikidata": "Q2420096", "brand:wikipedia": "fr:Franprix", "changing_table": "no", "check_date": "2025-04-02", "currency:EUR": "yes", "name": "Franprix", "opening_hours": "Mo-Su 09:00-20:30", "operator": "Groupe Casino", "organic": "no", "payment:cash": "yes", "payment:visa_debit": "yes", "second_hand": "no", "shop": "convenience", "source": "survey", "stroller": "yes", "toilets": "no", "website": "https://www.franprix.fr/", "wheelchair": "yes"}}, {"type": "node", "id": 621110154, "lat": 48.8210241, "lon": 2.3033306, "tags": {"addr:city": "Malakoff", "addr:housenumber": "10", "addr:postcode": "92240", "addr:street": "Rue Salvador Allende", "brand": "Intermarch\u00e9", "brand:wikidata": "Q3153200", "brand:wikipedia": "fr:Intermarch\u00e9", "check_date:opening_hours": "2022-10-31", "name": "Intermarch\u00e9", "opening_hours": "Mo-Sa 08:30-21:00; Su 08:30-20:00", "operator": "Groupement des Mousquetaires", "payment:cash": "yes", "payment:contactless": "yes", "payment:debit_cards": "yes", "payment:mastercard": "yes", "payment:visa": "yes", "phone": "+33 1 78 16 50 00", "shop": "supermarket", "source": "survey", "wheelchair": "yes"}}, {"type": "node", "id": 624419687, "lat": 48.8383458, "lon": 2.4178549, "tags": {"addr:city": "Saint-Mand\u00e9", "addr:housenumber": "69", "addr:postcode": "94160", "addr:street": "Avenue du G\u00e9n\u00e9ral de Gaulle", "brand": "Franprix", "brand:wikidata": "Q2420096", "brand:wikipedia": "fr:Franprix", "name": "Franprix", "opening_hours": "Mo-Su 09:00-20:00", "operator": "Groupe Casino", "shop": "convenience", "website": "https://www.franprix.fr/magasins/5370"}}, {"type": "node", "id": 625171506, "lat": 48.8323948, "lon": 2.3645635, "tags": {"amenity": "fuel", "brand": "BP", "brand:wikidata": "Q152057", "brand:wikipedia": "fr:BP (entreprise)", "compressed_air": "yes", "fuel:diesel": "yes", "fuel:e10": "yes", "fuel:octane_98": "yes", "name": "BP", "opening_hours": "24/7", "operator": "BP", "ref:FR:prix-carburants": "75013028", "shop": "convenience", "source": "Minist\u00e8re de l'Economie, de l'Industrie et du Num\u00e9rique - 03/2020", "toilets": "yes", "wheelchair": "no"}}, {"type": "node", "id": 629382803, "lat": 48.8370128, "lon": 2.2967236, "tags": {"brand": "Biocoop", "brand:wikidata": "Q2904039", "brand:wikipedia": "fr:Biocoop", "contact:city": "Paris", "contact:housenumber": "202", "contact:phone": "+33 1 44 93 05 89", "contact:postcode": "75015", "contact:street": "Rue de la convention", "contact:website": "https://convention.biocoop.net", "name": "Biocoop", "official_name": "Biocoop Convention", "opening_hours": "Mo-Sa 09:30-20:00; Su 09:30-12:45", "organic": "only", "ref:FR:SIRET": "84841936200019", "shop": "supermarket", "source": "survey"}}, {"type": "node", "id": 629651840, "lat": 48.8410299, "lon": 2.331839, "tags": {"name": "Rapid' Market", "opening_hours": "08:00-02:00", "shop": "convenience"}}, {"type": "node", "id": 629824653, "lat": 48.8239394, "lon": 2.3202519, "tags": {"name": "Daniel-Yan", "old_name": "\u0413\u0430\u0441\u0442\u0440\u043e\u043d\u043e\u043c\u044a", "origin": "slavic", "payment:credit_cards": "yes", "payment:debit_cards": "yes", "shop": "convenience", "wheelchair": "yes"}}, {"type": "node", "id": 629866756, "lat": 48.8448296, "lon": 2.3096526, "tags": {"description": "\u00c9picerie Russe", "name": "Prestige", "shop": "convenience", "source": "survey"}}, {"type": "node", "id": 631537867, "lat": 48.8364139, "lon": 2.31054, "tags": {"brand": "Carrefour City", "brand:wikidata": "Q2940187", "brand:wikipedia": "fr:Carrefour City", "check_date:opening_hours": "2022-10-20", "contact:city": "Paris", "contact:housenumber": "137", "contact:phone": "+33 1 40 56 93 13", "contact:postcode": "75015", "contact:street": "Place Falgui\u00e8re", "contact:website": "https://www.carrefour.fr/", "name": "Carrefour City", "opening_hours": "Mo-Sa 07:00-22:00; Su 09:00-12:30", "operator": "Groupe Carrefour", "operator:wikidata": "Q3117359", "operator:wikipedia": "fr:Groupe Carrefour", "shop": "convenience"}}, {"type": "node", "id": 635401911, "lat": 48.8289561, "lon": 2.2828077, "tags": {"addr:city": "Issy-les-Moulineaux", "addr:housenumber": "15", "addr:postcode": "92130", "addr:street": "Rue Ernest Renan", "name": "Proximit\u00e9 services", "opening_hours": "Mo-Su 07:30-24:00", "shop": "convenience", "source": "cadastre-dgi-fr source : Direction G\u00e9n\u00e9rale des Imp\u00f4ts - Cadastre. Mise \u00e0 jour : 2010"}}, {"type": "node", "id": 650008284, "lat": 48.8534793, "lon": 2.3370935, "tags": {"brand": "Carrefour Market", "brand:wikidata": "Q2689639", "brand:wikipedia": "fr:Carrefour Market", "name": "Carrefour Market", "opening_hours": "Mo-Sa 08:30-23:00; Su 09:00-19:30", "operator": "Groupe Carrefour", "operator:wikidata": "Q3117359", "operator:wikipedia": "fr:Groupe Carrefour", "phone": "+33 1 43 25 65 03", "shop": "supermarket", "website": "https://www.carrefour.fr/magasin/market-paris-seine", "wheelchair": "yes"}}, {"type": "node", "id": 653880473, "lat": 48.8447404, "lon": 2.3092568, "tags": {"check_date:opening_hours": "2026-02-19", "contact:city": "Paris", "contact:housenumber": "24", "contact:postcode": "75015", "contact:street": "Rue Lecourbe", "dog": "no", "name": "mon-march\u00e9.fr", "opening_hours": "Mo-Sa 08:30-22:00, Su 08:30-12:30", "shop": "supermarket", "website": "https://www.mon-marche.fr"}}, {"type": "node", "id": 656739290, "lat": 48.8431654, "lon": 2.5041879, "tags": {"addr:city": "Le Perreux-sur-Marne", "addr:housenumber": "7", "addr:postcode": "94170", "addr:street": "Rue de la Station", "brand": "Franprix", "brand:wikidata": "Q2420096", "brand:wikipedia": "fr:Franprix", "check_date:opening_hours": "2023-12-28", "name": "Le March\u00e9 Franprix", "opening_hours": "Mo-Su 08:30-21:00", "operator": "Franprix", "shop": "convenience"}}, {"type": "node", "id": 658054553, "lat": 48.7827179, "lon": 2.3146415, "tags": {"addr:city": "Bourg-la-Reine", "addr:postcode": "92340", "addr:street": "Boulevard du Mar\u00e9chal Joffre", "brand": "Carrefour Market", "brand:wikidata": "Q2689639", "brand:wikipedia": "fr:Carrefour Market", "name": "Carrefour Market", "opening_hours": "Mo-Sa 08:30-21:00; Su 09:00-12:30", "operator": "Carrefour", "phone": "+33 1 46 65 56 46", "shop": "convenience", "website": "https://www.carrefour.fr/magasin/market-bourg-la-reine"}}, {"type": "node", "id": 665551063, "lat": 48.8413374, "lon": 2.5054398, "tags": {"addr:city": "Le Perreux-sur-Marne", "addr:housenumber": "117", "addr:postcode": "94170", "addr:street": "Avenue du G\u00e9n\u00e9ral de Gaulle", "brand": "Monoprix", "brand:wikidata": "Q3321241", "brand:wikipedia": "fr:Monoprix (France)", "check_date": "2025-05-01", "name": "Monoprix", "opening_hours": "Mo-Sa 09:00-20:00; Su 09:00-12:50", "operator": "Groupe Casino", "payment:cash": "yes", "payment:credit_cards": "yes", "phone:FR": "0800 08 4000", "shop": "supermarket", "website": "https://www.monoprix.fr/889.html", "wheelchair": "yes"}},