{
"type": "FeatureCollection",
"name": "supermarchés_idf",
"crs": { "type": "name", "properties": { "name": "urn:ogc:def:crs:OGC:1.3:CRS84" } },
"features": [
{ "type": "Feature", "properties": { "element": "node", "id": 25209161, "name": "TotalEnergies Access - Relais de Clair Bois", "brand": "TotalEnergies", "operator": "TotalEnergies", "shop": "convenience", "ville": null, "code_postal": "78350", "enseigne": "totalenergies", "est_cible": false, "longitude": 2.1731752, "latitude": 48.7805779 }, "geometry": { "type": "Point", "coordinates": [ 2.1731752, 48.7805779 ] } },
{ "type": "Feature", "properties": { "element": "node", "id": 25209786, "name": "Esso", "brand": "Esso", "operator": "Esso", "shop": "convenience", "ville": null, "code_postal": "91250", "enseigne": "esso", "est_cible": false, "longitude": 2.4863554, "latitude": 48.6301232 }, "geometry": { "type": "Point", "coordinates": [ 2.4863554, 48.6301232 ] } },
{ "type": "Feature", "properties": { "element": "node", "id": 25209809, "name": "Station BP", "brand": "BP", "operator": "BP", "shop": "convenience", "ville": null, "code_postal": "91460", "enseigne": "bp", "est_cible": false, "longitude": 2.201995, "latitude": 48.6382753 }, "geometry": { "type": "Point", "coordinates": [ 2.201995, 48.6382753 ] } },
{ "type": "Feature", "properties": { "element": "node", "id": 25209909, "name": "Relais Saint-Cloud Dassault", "brand": "TotalEnergies", "operator": "Total Access", "shop": "convenience", "ville": null, "code_postal": "92210", "enseigne": "totalenergies", "est_cible": false, "longitude": 2.2224884, "latitude": 48.8549783 }, "geometry": { "type": "Point", "coordinates": [ 2.2224884, 48.8549783 ] } },
{ "type": "Feature", "properties": { "element": "node", "id": 25210408, "name": "Station Avia", "brand": "Avia", "operator": "Avia", "shop": "convenience", "ville": "Houdan", "code_postal": "78550", "enseigne": "avia", "est_cible": false, "longitude": 1.6320146, "latitude": 48.7925072 }, "geometry": { "type": "Point", "coordinates": [ 1.6320146, 48.7925072 ] } },
{ "type": "Feature", "properties": { "element": "node", "id": 25210516, "name": "Total", "brand": "Total", "operator": "Total", "shop": "convenience", "ville": null, "code_postal": "94200", "enseigne": "total", "est_cible": false, "longitude": 2.3762455, "latitude": 48.8060686 }, "geometry": { "type": "Point", "coordinates": [ 2.3762455, 48.8060686 ] } },
{ "type": "Feature", "properties": { "element": "node", "id": 25210525, "name": "Fulli", "brand": "Fulli", "operator": "Fulli", "shop": "convenience", "ville": "Forges", "code_postal": "77130", "enseigne": "fulli", "est_cible": false, "longitude": 2.9327233, "latitude": 48.4287369 }, "geometry": { "type": "Point", "coordinates": [ 2.9327233, 48.4287369 ] } },
{ "type": "Feature", "properties": { "element": "node", "id": 25210897, "name": "Esso", "brand": "Total", "operator": "Total Energy", "shop": "convenience", "ville": null, "code_postal": "94190", "enseigne": "total", "est_cible": false, "longitude": 2.4469656, "latitude": 48.7420431 }, "geometry": { "type": "Point", "coordinates": [ 2.4469656, 48.7420431 ] } },
{ "type": "Feature", "properties": { "element": "node", "id": 25211440, "name": "Fullli", "brand": "Fulli", "operator": "Fulli", "shop": "convenience", "ville": "Forges", "code_postal": "77130", "enseigne": "fulli", "est_cible": false, "longitude": 2.9273012, "latitude": 48.4262799 }, "geometry": { "type": "Point", "coordinates": [ 2.9273012, 48.4262799 ] } },
{ "type": "Feature", "properties": { "element": "node", "id": 25211702, "name": "Relais Total De Morainvilliers", "brand": "TotalEnergies", "operator": "Total", "shop": "convenience", "ville": null, "code_postal": "78630", "enseigne": "totalenergies", "est_cible": false, "longitude": 1.9546657, "latitude": 48.940942 }, "geometry": { "type": "Point", "coordinates": [ 1.9546657, 48.940942 ] } },
{ "type": "Feature", "properties": { "element": "node", "id": 25212415, "name": "Station BP", "brand": "BP", "operator": "BP", "shop": "convenience", "ville": "ussy-sur-marne", "code_postal": "77260", "enseigne": "bp", "est_cible": false, "longitude": 3.0641728, "latitude": 48.9705405 }, "geometry": { "type": "Point", "coordinates": [ 3.0641728, 48.9705405 ] } },
{ "type": "Feature", "properties": { "element": "node", "id": 25212822, "name": "Station Total", "brand": "TotalEnergies", "operator": "Total", "shop": "convenience", "ville": null, "code_postal": "77340", "enseigne": "totalenergies", "est_cible": false, "longitude": 2.6183973, "latitude": 48.7926301 }, "geometry": { "type": "Point", "coordinates": [ 2.6183973, 48.7926301 ] } },
{ "type": "Feature", "properties": { "element": "node", "id": 25213344, "name": "Shell", "brand": "Shell", "operator": "Shell", "shop": "convenience", "ville": null, "code_postal": "78550", "enseigne": "shell", "est_cible": false, "longitude": 1.6343138, "latitude": 48.791937 }, "geometry": { "type": "Point", "coordinates": [ 1.6343138, 48.791937 ] } },
{ "type": "Feature", "properties": { "element": "node", "id": 25213379, "name": "Total", "brand": "Total", "operator": "Total", "shop": "convenience", "ville": null, "code_postal": "91480", "enseigne": "total", "est_cible": false, "longitude": 2.5267102, "latitude": 48.6772487 }, "geometry": { "type": "Point", "coordinates": [ 2.5267102, 48.6772487 ] } },
{ "type": "Feature", "properties": { "element": "node", "id": 25213384, "name": "Relais Total Du Pont Aval", "brand": "Total Access", "operator": "Total", "shop": "convenience", "ville": null, "code_postal": "75015", "enseigne": "total access", "est_cible": false, "longitude": 2.266146, "latitude": 48.8346767 }, "geometry": { "type": "Point", "coordinates": [ 2.266146, 48.8346767 ] } },
{ "type": "Feature", "properties": { "element": "node", "id": 25213618, "name": "Relais Total De La Rosée", "brand": "Total", "operator": "Total", "shop": "convenience", "ville": "Claye-Souilly", "code_postal": "77410", "enseigne": "total", "est_cible": false, "longitude": 2.6657243, "latitude": 48.9523322 }, "geometry": { "type": "Point", "coordinates": [ 2.6657243, 48.9523322 ] } },
{ "type": "Feature", "properties": { "element": "node", "id": 25213787, "name": "Les Tulipes", "brand": "Total Access", "operator": null, "shop": "convenience", "ville": null, "code_postal": "95500", "enseigne": "total access", "est_cible": false, "longitude": 2.4662447, "latitude": 48.9666276 }, "geometry": { "type": "Point", "coordinates": [ 2.4662447, 48.9666276 ] } },
{ "type": "Feature", "properties": { "element": "node", "id": 25213982, "name": "Station Shell", "brand": "Shell", "operator": "Shell", "shop": "convenience", "ville": "Vélizy-Villacoublay", "code_postal": "78140", "enseigne": "shell", "est_cible": false, "longitude": 2.2276827, "latitude": 48.7709948 }, "geometry": { "type": "Point", "coordinates": [ 2.2276827, 48.7709948 ] } },
{ "type": "Feature", "properties": { "element": "node", "id": 25214212, "name": "Bonjour", "brand": "Bonjour", "operator": "Total", "shop": "convenience", "ville": null, "code_postal": "78630", "enseigne": "bonjour", "est_cible": false, "longitude": 1.9506323, "latitude": 48.9422638 }, "geometry": { "type": "Point", "coordinates": [ 1.9506323, 48.9422638 ] } },
{ "type": "Feature", "properties": { "element": "node", "id": 25214414, "name": "Inconnu", "brand": "Avia", "operator": "Avia", "shop": "convenience", "ville": "Orly", "code_postal": "94310", "enseigne": "avia", "est_cible": false, "longitude": 2.3659318, "latitude": 48.7323223 }, "geometry": { "type": "Point", "coordinates": [ 2.3659318, 48.7323223 ] } },
{ "type": "Feature", "properties": { "element": "node", "id": 25214712, "name": "Station BP", "brand": "BP", "operator": "BP", "shop": "convenience", "ville": null, "code_postal": "77260", "enseigne": "bp", "est_cible": false, "longitude": 3.0533449, "latitude": 48.9642645 }, "geometry": { "type": "Point", "coordinates": [ 3.0533449, 48.9642645 ] } },
{ "type": "Feature", "properties": { "element": "node", "id": 25214713, "name": "TotalEnergies", "brand": "TotalEnergies", "operator": null, "shop": "convenience", "ville": null, "code_postal": "93120", "enseigne": "totalenergies", "est_cible": false, "longitude": 2.3941778, "latitude": 48.9346389 }, "geometry": { "type": "Point", "coordinates": [ 2.3941778, 48.9346389 ] } },
{ "type": "Feature", "properties": { "element": "node", "id": 25214769, "name": "Inconnu", "brand": null, "operator": "Shell", "shop": "convenience", "ville": "Vémars", "code_postal": "95470", "enseigne": "inconnu", "est_cible": false, "longitude": 2.5514194, "latitude": 49.0714919 }, "geometry": { "type": "Point", "coordinates": [ 2.5514194, 49.0714919 ] } },
{ "type": "Feature", "properties": { "element": "node", "id": 36802040, "name": "Auchan Supermarché", "brand": "Auchan Supermarché", "operator": "Auchan Supermarché", "shop": "supermarket", "ville": "Jouy-en-Josas", "code_postal": "78350", "enseigne": "auchan supermarché", "est_cible": false, "longitude": 2.162263, "latitude": 48.7658322 }, "geometry": { "type": "Point", "coordinates": [ 2.162263, 48.7658322 ] } },
{ "type": "Feature", "properties": { "element": "node", "id": 59722109, "name": "Super U", "brand": "Super U", "operator": "Leader Price", "shop": "supermarket", "ville": null, "code_postal": null, "enseigne": "super u", "est_cible": true, "longitude": 2.25354, "latitude": 48.7786 }, "geometry": { "type": "Point", "coordinates": [ 2.25354, 48.7786 ] } },
{ "type": "Feature", "properties": { "element": "node", "id": 137284370, "name": "Lidl", "brand": "Lidl", "operator": "Lidl", "shop": "supermarket", "ville": null, "code_postal": null, "enseigne": "lidl", "est_cible": true, "longitude": 2.2397425, "latitude": 48.7302334 }, "geometry": { "type": "Point", "coordinates": [ 2.2397425, 48.7302334 ] } },
{ "type": "Feature", "properties": { "element": "node", "id": 156492850, "name": "Saint-Cyr Alimentation", "brand": null, "operator": null, "shop": "convenience", "ville": null, "code_postal": null, "enseigne": "inconnu", "est_cible": false, "longitude": 2.0687249, "latitude": 48.7994926 }, "geometry": { "type": "Point", "coordinates": [ 2.0687249, 48.7994926 ] } },
{ "type": "Feature", "properties": { "element": "node", "id": 157452800, "name": "Monoprix", "brand": "Monoprix", "operator": "Monoprix", "shop": "supermarket", "ville": null, "code_postal": null, "enseigne": "monoprix", "est_cible": true, "longitude": 2.0615111, "latitude": 48.8028131 }, "geometry": { "type": "Point", "coordinates": [ 2.0615111, 48.8028131 ] } },
{ "type": "Feature", "properties": { "element": "node", "id": 181290562, "name": "Franprix", "brand": "Franprix", "operator": "Groupe Casino", "shop": "convenience", "ville": null, "code_postal": null, "enseigne": "franprix", "est_cible": true, "longitude": 2.2228116, "latitude": 48.8956757 }, "geometry": { "type": "Point", "coordinates": [ 2.2228116, 48.8956757 ] } },
{ "type": "Feature", "properties": { "element": "node", "id": 199054408, "name": "TotalEnergies", "brand": "TotalEnergies", "operator": null, "shop": "convenience", "ville": null, "code_postal": null, "enseigne": "totalenergies", "est_cible": false, "longitude": 2.196704, "latitude": 48.7463661 }, "geometry": { "type": "Point", "coordinates": [ 2.196704, 48.7463661 ] } },
{ "type": "Feature", "properties": { "element": "node", "id": 206193883, "name": "Carrefour City", "brand": "Carrefour City", "operator": "Carrefour", "shop": "convenience", "ville": null, "code_postal": null, "enseigne": "carrefour city", "est_cible": true, "longitude": 2.1707588, "latitude": 48.7835853 }, "geometry": { "type": "Point", "coordinates": [ 2.1707588, 48.7835853 ] } },
{ "type": "Feature", "properties": { "element": "node", "id": 206194380, "name": "Carrefour Market", "brand": "Carrefour Market", "operator": "Carrefour", "shop": "convenience", "ville": "Vélizy-Villacoublay", "code_postal": "78140", "enseigne": "carrefour market", "est_cible": true, "longitude": 2.1818283, "latitude": 48.7844815 }, "geometry": { "type": "Point", "coordinates": [ 2.1818283, 48.7844815 ] } },
{ "type": "Feature", "properties": { "element": "node", "id": 206195902, "name": "Inconnu", "brand": null, "operator": null, "shop": "convenience", "ville": null, "code_postal": null, "enseigne": "inconnu", "est_cible": false, "longitude": 2.1790125, "latitude": 48.7871094 }, "geometry": { "type": "Point", "coordinates": [ 2.1790125, 48.7871094 ] } },
{ "type": "Feature", "properties": { "element": "node", "id": 243458341, "name": "Franprix", "brand": "Franprix", "operator": "Groupe Casino", "shop": "convenience", "ville": "Versailles", "code_postal": "78000", "enseigne": "franprix", "est_cible": true, "longitude": 2.1353585, "latitude": 48.7978241 }, "geometry": { "type": "Point", "coordinates": [ 2.1353585, 48.7978241 ] } },
{ "type": "Feature", "properties": { "element": "node", "id": 251013837, "name": "Inconnu", "brand": "Carrefour", "operator": "Carrefour", "shop": "supermarket", "ville": null, "code_postal": null, "enseigne": "carrefour", "est_cible": true, "longitude": 2.3733865, "latitude": 48.7120738 }, "geometry": { "type": "Point", "coordinates": [ 2.3733865, 48.7120738 ] } },
{ "type": "Feature", "properties": { "element": "node", "id": 251617420, "name": "Casino Shop", "brand": "Casino Shop", "operator": null, "shop": "convenience", "ville": null, "code_postal": null, "enseigne": "casino shop", "est_cible": true, "longitude": 2.2414902, "latitude": 48.6598389 }, "geometry": { "type": "Point", "coordinates": [ 2.2414902, 48.6598389 ] } },
{ "type": "Feature", "properties": { "element": "node", "id": 252814154, "name": "Tang Frères", "brand": null, "operator": null, "shop": "supermarket", "ville": "Paris", "code_postal": "75013", "enseigne": "inconnu", "est_cible": false, "longitude": 2.3651653, "latitude": 48.8242374 }, "geometry": { "type": "Point", "coordinates": [ 2.3651653, 48.8242374 ] } },
{ "type": "Feature", "properties": { "element": "node", "id": 255003455, "name": "Total", "brand": "Total", "operator": null, "shop": "convenience", "ville": null, "code_postal": null, "enseigne": "total", "est_cible": false, "longitude": 2.2703742, "latitude": 48.8841896 }, "geometry": { "type": "Point", "coordinates": [ 2.2703742, 48.8841896 ] } },
{ "type": "Feature", "properties": { "element": "node", "id": 255688248, "name": "Monoprix", "brand": "Monoprix", "operator": "Groupe Casino", "shop": "supermarket", "ville": "Issy-les-Moulineaux", "code_postal": "92130", "enseigne": "monoprix", "est_cible": true, "longitude": 2.2739238, "latitude": 48.8242398 }, "geometry": { "type": "Point", "coordinates": [ 2.2739238, 48.8242398 ] } },
{ "type": "Feature", "properties": { "element": "node", "id": 257397217, "name": "Franprix", "brand": "Franprix", "operator": null, "shop": "convenience", "ville": null, "code_postal": null, "enseigne": "franprix", "est_cible": true, "longitude": 2.2767684, "latitude": 48.7298196 }, "geometry": { "type": "Point", "coordinates": [ 2.2767684, 48.7298196 ] } },
{ "type": "Feature", "properties": { "element": "node", "id": 259284911, "name": "Esso", "brand": "Esso", "operator": null, "shop": "convenience", "ville": null, "code_postal": null, "enseigne": "esso", "est_cible": false, "longitude": 2.2925362, "latitude": 48.8391995 }, "geometry": { "type": "Point", "coordinates": [ 2.2925362, 48.8391995 ] } },
{ "type": "Feature", "properties": { "element": "node", "id": 259847619, "name": "Auchan Supermarché", "brand": "Auchan Supermarché", "operator": "Auchan Supermarché", "shop": "supermarket", "ville": "Noisy-le-Grand", "code_postal": "93160", "enseigne": "auchan supermarché", "est_cible": false, "longitude": 2.5487414, "latitude": 48.8476756 }, "geometry": { "type": "Point", "coordinates": [ 2.5487414, 48.8476756 ] } },
{ "type": "Feature", "properties": { "element": "node", "id": 260016094, "name": "Monoprix", "brand": "Monoprix", "operator": "Monoprix", "shop": "supermarket", "ville": "Paris", "code_postal": "75015", "enseigne": "monoprix", "est_cible": true, "longitude": 2.3052604, "latitude": 48.8435771 }, "geometry": { "type": "Point", "coordinates": [ 2.3052604, 48.8435771 ] } },
{ "type": "Feature", "properties": { "element": "node", "id": 260151582, "name": "Inconnu", "brand": "Total", "operator": null, "shop": "convenience", "ville": null, "code_postal": null, "enseigne": "total", "est_cible": false, "longitude": 2.9361464, "latitude": 48.401453 }, "geometry": { "type": "Point", "coordinates": [ 2.9361464, 48.401453 ] } },
{ "type": "Feature", "properties": { "element": "node", "id": 260282410, "name": "Carrefour City", "brand": "Carrefour City", "operator": "Carrefour", "shop": "convenience", "ville": null, "code_postal": null, "enseigne": "carrefour city", "est_cible": true, "longitude": 2.2715919, "latitude": 48.8234643 }, "geometry": { "type": "Point", "coordinates": [ 2.2715919, 48.8234643 ] } },
{ "type": "Feature", "properties": { "element": "node", "id": 262861803, "name": "G20", "brand": "G20", "operator": null, "shop": "supermarket", "ville": null, "code_postal": null, "enseigne": "g20", "est_cible": true, "longitude": 2.2906833, "latitude": 48.8359056 }, "geometry": { "type": "Point", "coordinates": [ 2.2906833, 48.8359056 ] } },
{ "type": "Feature", "properties": { "element": "node", "id": 264102273, "name": "Monoprix", "brand": "Monoprix", "operator": "Groupe Casino", "shop": "supermarket", "ville": null, "code_postal": null, "enseigne": "monoprix", "est_cible": true, "longitude": 2.4364365, "latitude": 48.8592378 }, "geometry": { "type": "Point", "coordinates": [ 2.4364365, 48.8592378 ] } },
{ "type": "Feature", "properties": { "element": "node", "id": 267041268, "name": "Carrefour", "brand": "Carrefour", "operator": "Groupe Carrefour", "shop": "supermarket", "ville": null, "code_postal": null, "enseigne": "carrefour", "est_cible": true, "longitude": 2.546142, "latitude": 48.8396302 }, "geometry": { "type": "Point", "coordinates": [ 2.546142, 48.8396302 ] } },
{ "type": "Feature", "properties": { "element": "node", "id": 268058252, "name": "Franprix", "brand": "Franprix", "operator": "Groupe Casino", "shop": "convenience", "ville": null, "code_postal": null, "enseigne": "franprix", "est_cible": true, "longitude": 2.3241196, "latitude": 48.8461451 }, "geometry": { "type": "Point", "coordinates": [ 2.3241196, 48.8461451 ] } },
{ "type": "Feature", "properties": { "element": "node", "id": 270807219, "name": "U Express", "brand": "U Express", "operator": "Système U", "shop": "convenience", "ville": null, "code_postal": null, "enseigne": "u express", "est_cible": false, "longitude": 2.3469793, "latitude": 48.8661141 }, "geometry": { "type": "Point", "coordinates": [ 2.3469793, 48.8661141 ] } },
{ "type": "Feature", "properties": { "element": "node", "id": 270807425, "name": "U Express", "brand": "U Express", "operator": null, "shop": "convenience", "ville": "Paris", "code_postal": null, "enseigne": "u express", "est_cible": false, "longitude": 2.3470962, "latitude": 48.8669014 }, "geometry": { "type": "Point", "coordinates": [ 2.3470962, 48.8669014 ] } },
{ "type": "Feature", "properties": { "element": "node", "id": 270808172, "name": "Franprix", "brand": "Franprix", "operator": null, "shop": "convenience", "ville": null, "code_postal": null, "enseigne": "franprix", "est_cible": true, "longitude": 2.3465014, "latitude": 48.8642239 }, "geometry": { "type": "Point", "coordinates": [ 2.3465014, 48.8642239 ] } },
{ "type": "Feature", "properties": { "element": "node", "id": 271963377, "name": "Franprix", "brand": "Franprix", "operator": "Groupe Casino", "shop": "convenience", "ville": null, "code_postal": null, "enseigne": "franprix", "est_cible": true, "longitude": 2.3988705, "latitude": 48.7562945 }, "geometry": { "type": "Point", "coordinates": [ 2.3988705, 48.7562945 ] } },
{ "type": "Feature", "properties": { "element": "node", "id": 275330566, "name": "Carrefour City", "brand": "Carrefour City", "operator": "Carrefour", "shop": "convenience", "ville": null, "code_postal": null, "enseigne": "carrefour city", "est_cible": true, "longitude": 2.1808596, "latitude": 48.8645469 }, "geometry": { "type": "Point", "coordinates": [ 2.1808596, 48.8645469 ] } },
{ "type": "Feature", "properties": { "element": "node", "id": 275347030, "name": "Carrefour City", "brand": "Carrefour City", "operator": "Carrefour City", "shop": "convenience", "ville": null, "code_postal": null, "enseigne": "carrefour city", "est_cible": true, "longitude": 2.1934373, "latitude": 48.8681845 }, "geometry": { "type": "Point", "coordinates": [ 2.1934373, 48.8681845 ] } },
{ "type": "Feature", "properties": { "element": "node", "id": 276919027, "name": "G20", "brand": "G20", "operator": "G20", "shop": "supermarket", "ville": "Paris", "code_postal": "75016", "enseigne": "g20", "est_cible": true, "longitude": 2.258237, "latitude": 48.8379645 }, "geometry": { "type": "Point", "coordinates": [ 2.258237, 48.8379645 ] } },
{ "type": "Feature", "properties": { "element": "node", "id": 276946165, "name": "Bocal Génial", "brand": null, "operator": null, "shop": "convenience", "ville": "Montreuil", "code_postal": "93100", "enseigne": "inconnu", "est_cible": false, "longitude": 2.4392463, "latitude": 48.8604062 }, "geometry": { "type": "Point", "coordinates": [ 2.4392463, 48.8604062 ] } },
{ "type": "Feature", "properties": { "element": "node", "id": 280694858, "name": "G20", "brand": "G20", "operator": "G20", "shop": "supermarket", "ville": null, "code_postal": null, "enseigne": "g20", "est_cible": true, "longitude": 2.3551317, "latitude": 48.8693722 }, "geometry": { "type": "Point", "coordinates": [ 2.3551317, 48.8693722 ] } },
{ "type": "Feature", "properties": { "element": "node", "id": 281001675, "name": "Carrefour City", "brand": "Carrefour City", "operator": "Groupe Carrefour;VintedGo", "shop": "convenience", "ville": null, "code_postal": null, "enseigne": "carrefour city", "est_cible": true, "longitude": 2.3531191, "latitude": 48.8703138 }, "geometry": { "type": "Point", "coordinates": [ 2.3531191, 48.8703138 ] } },
{ "type": "Feature", "properties": { "element": "node", "id": 281915646, "name": "Maison Sumac", "brand": null, "operator": null, "shop": "convenience", "ville": null, "code_postal": null, "enseigne": "inconnu", "est_cible": false, "longitude": 2.7495542, "latitude": 48.4511237 }, "geometry": { "type": "Point", "coordinates": [ 2.7495542, 48.4511237 ] } },
{ "type": "Feature", "properties": { "element": "node", "id": 282175384, "name": "Auchan", "brand": "Auchan", "operator": "Auchan", "shop": "supermarket", "ville": null, "code_postal": "92130", "enseigne": "auchan", "est_cible": false, "longitude": 2.2512358, "latitude": 48.8207696 }, "geometry": { "type": "Point", "coordinates": [ 2.2512358, 48.8207696 ] } },
{ "type": "Feature", "properties": { "element": "node", "id": 283225860, "name": "G20", "brand": "G20", "operator": "G20", "shop": "supermarket", "ville": null, "code_postal": null, "enseigne": "g20", "est_cible": true, "longitude": 2.3012012, "latitude": 48.8579464 }, "geometry": { "type": "Point", "coordinates": [ 2.3012012, 48.8579464 ] } },
{ "type": "Feature", "properties": { "element": "node", "id": 283347984, "name": "Monoprix", "brand": "Monoprix", "operator": "Groupe Casino", "shop": "supermarket", "ville": "Paris", "code_postal": "75002", "enseigne": "monoprix", "est_cible": true, "longitude": 2.3519365, "latitude": 48.8655996 }, "geometry": { "type": "Point", "coordinates": [ 2.3519365, 48.8655996 ] } },
{ "type": "Feature", "properties": { "element": "node", "id": 286818703, "name": "Franprix", "brand": "Franprix", "operator": "Groupe Casino", "shop": "convenience", "ville": null, "code_postal": null, "enseigne": "franprix", "est_cible": true, "longitude": 2.3536136, "latitude": 48.8729563 }, "geometry": { "type": "Point", "coordinates": [ 2.3536136, 48.8729563 ] } },
{ "type": "Feature", "properties": { "element": "node", "id": 288033070, "name": "Carrefour Market", "brand": "Carrefour Market", "operator": "Carrefour", "shop": "convenience", "ville": "Le Plessis-Robinson", "code_postal": "92350", "enseigne": "carrefour market", "est_cible": true, "longitude": 2.2629767, "latitude": 48.7810787 }, "geometry": { "type": "Point", "coordinates": [ 2.2629767, 48.7810787 ] } },
{ "type": "Feature", "properties": { "element": "node", "id": 288079011, "name": "Aldi", "brand": "Aldi", "operator": "Aldi", "shop": "supermarket", "ville": "Noisy-le-Grand", "code_postal": "93160", "enseigne": "aldi", "est_cible": true, "longitude": 2.5604005, "latitude": 48.8368308 }, "geometry": { "type": "Point", "coordinates": [ 2.5604005, 48.8368308 ] } },
{ "type": "Feature", "properties": { "element": "node", "id": 288156664, "name": "Intermarché Express", "brand": "Intermarché Express", "operator": "Groupement des Mousquetaires", "shop": "supermarket", "ville": null, "code_postal": null, "enseigne": "intermarché express", "est_cible": true, "longitude": 2.4029932, "latitude": 48.8573257 }, "geometry": { "type": "Point", "coordinates": [ 2.4029932, 48.8573257 ] } },
{ "type": "Feature", "properties": { "element": "node", "id": 288157892, "name": "Franprix", "brand": "Franprix", "operator": "Groupe Casino", "shop": "convenience", "ville": null, "code_postal": null, "enseigne": "franprix", "est_cible": true, "longitude": 2.401549, "latitude": 48.8550047 }, "geometry": { "type": "Point", "coordinates": [ 2.401549, 48.8550047 ] } },
{ "type": "Feature", "properties": { "element": "node", "id": 288158041, "name": "Lidl", "brand": "Lidl", "operator": "Lidl", "shop": "supermarket", "ville": null, "code_postal": null, "enseigne": "lidl", "est_cible": true, "longitude": 2.4057615, "latitude": 48.8533252 }, "geometry": { "type": "Point", "coordinates": [ 2.4057615, 48.8533252 ] } },
{ "type": "Feature", "properties": { "element": "node", "id": 288328432, "name": "Auchan", "brand": "Auchan", "operator": "Auchan", "shop": "supermarket", "ville": null, "code_postal": null, "enseigne": "auchan", "est_cible": false, "longitude": 2.4156657, "latitude": 48.8653489 }, "geometry": { "type": "Point", "coordinates": [ 2.4156657, 48.8653489 ] } },
{ "type": "Feature", "properties": { "element": "node", "id": 292039458, "name": "Franprix", "brand": "Franprix", "operator": "Groupe Casino", "shop": "convenience", "ville": null, "code_postal": null, "enseigne": "franprix", "est_cible": true, "longitude": 2.40147, "latitude": 48.7626646 }, "geometry": { "type": "Point", "coordinates": [ 2.40147, 48.7626646 ] } },
{ "type": "Feature", "properties": { "element": "node", "id": 293986500, "name": "Alimentation Génréale Blue", "brand": null, "operator": null, "shop": "convenience", "ville": null, "code_postal": null, "enseigne": "inconnu", "est_cible": false, "longitude": 2.3679348, "latitude": 48.8666873 }, "geometry": { "type": "Point", "coordinates": [ 2.3679348, 48.8666873 ] } },
{ "type": "Feature", "properties": { "element": "node", "id": 293986549, "name": "Franprix", "brand": "Franprix", "operator": "Groupe Casino", "shop": "convenience", "ville": null, "code_postal": null, "enseigne": "franprix", "est_cible": true, "longitude": 2.3863208, "latitude": 48.8632059 }, "geometry": { "type": "Point", "coordinates": [ 2.3863208, 48.8632059 ] } },
{ "type": "Feature", "properties": { "element": "node", "id": 294038636, "name": "Franprix", "brand": "Franprix", "operator": "Groupe Casino", "shop": "convenience", "ville": null, "code_postal": null, "enseigne": "franprix", "est_cible": true, "longitude": 2.3740899, "latitude": 48.8785823 }, "geometry": { "type": "Point", "coordinates": [ 2.3740899, 48.8785823 ] } },
{ "type": "Feature", "properties": { "element": "node", "id": 295444331, "name": "Relais Maurepas", "brand": "Total", "operator": "TOTAL", "shop": "convenience", "ville": "Maurepas", "code_postal": "78310", "enseigne": "total", "est_cible": false, "longitude": 1.9454594, "latitude": 48.7614168 }, "geometry": { "type": "Point", "coordinates": [ 1.9454594, 48.7614168 ] } },
{ "type": "Feature", "properties": { "element": "node", "id": 295494768, "name": "Monoprix", "brand": "Monoprix", "operator": "Groupe Casino", "shop": "supermarket", "ville": null, "code_postal": "92120", "enseigne": "monoprix", "est_cible": true, "longitude": 2.313147, "latitude": 48.8221145 }, "geometry": { "type": "Point", "coordinates": [ 2.313147, 48.8221145 ] } },
{ "type": "Feature", "properties": { "element": "node", "id": 296212240, "name": "U Express", "brand": null, "operator": null, "shop": "supermarket", "ville": null, "code_postal": null, "enseigne": "inconnu", "est_cible": false, "longitude": 2.8748135, "latitude": 48.1807352 }, "geometry": { "type": "Point", "coordinates": [ 2.8748135, 48.1807352 ] } },
{ "type": "Feature", "properties": { "element": "node", "id": 297701386, "name": "Monop'", "brand": "Monop'", "operator": "Groupe Casino", "shop": "convenience", "ville": null, "code_postal": null, "enseigne": "monop'", "est_cible": false, "longitude": 2.4845213, "latitude": 48.8029276 }, "geometry": { "type": "Point", "coordinates": [ 2.4845213, 48.8029276 ] } },
{ "type": "Feature", "properties": { "element": "node", "id": 297796274, "name": "Carrefour", "brand": "Carrefour", "operator": "Carrefour", "shop": "supermarket", "ville": "Ormesson-sur-Marne", "code_postal": "94490", "enseigne": "carrefour", "est_cible": true, "longitude": 2.5543389, "latitude": 48.7936719 }, "geometry": { "type": "Point", "coordinates": [ 2.5543389, 48.7936719 ] } },
{ "type": "Feature", "properties": { "element": "node", "id": 304767534, "name": "Intermarché", "brand": "Intermarché", "operator": "Groupement des Mousquetaires", "shop": "supermarket", "ville": null, "code_postal": null, "enseigne": "intermarché", "est_cible": true, "longitude": 2.0211314, "latitude": 49.03342 }, "geometry": { "type": "Point", "coordinates": [ 2.0211314, 49.03342 ] } },
{ "type": "Feature", "properties": { "element": "node", "id": 304812612, "name": "Auchan", "brand": "Auchan", "operator": "Auchan", "shop": "supermarket", "ville": null, "code_postal": "95000", "enseigne": "auchan", "est_cible": false, "longitude": 2.0815003, "latitude": 49.0380376 }, "geometry": { "type": "Point", "coordinates": [ 2.0815003, 49.0380376 ] } },
{ "type": "Feature", "properties": { "element": "node", "id": 304964998, "name": "Franprix", "brand": "Franprix", "operator": "Groupe Casino", "shop": "convenience", "ville": null, "code_postal": null, "enseigne": "franprix", "est_cible": true, "longitude": 2.3578984, "latitude": 48.8738805 }, "geometry": { "type": "Point", "coordinates": [ 2.3578984, 48.8738805 ] } },
{ "type": "Feature", "properties": { "element": "node", "id": 306912775, "name": "Carrefour City", "brand": "Carrefour City", "operator": "Groupe Carrefour", "shop": "convenience", "ville": null, "code_postal": null, "enseigne": "carrefour city", "est_cible": true, "longitude": 2.3005803, "latitude": 48.83919 }, "geometry": { "type": "Point", "coordinates": [ 2.3005803, 48.83919 ] } },
{ "type": "Feature", "properties": { "element": "node", "id": 309848547, "name": "Netto", "brand": "Netto", "operator": "Netto", "shop": "supermarket", "ville": null, "code_postal": "78800", "enseigne": "netto", "est_cible": false, "longitude": 2.1873905, "latitude": 48.9242568 }, "geometry": { "type": "Point", "coordinates": [ 2.1873905, 48.9242568 ] } },
{ "type": "Feature", "properties": { "element": "node", "id": 310054121, "name": "Monoprix", "brand": "Monoprix", "operator": "Monoprix", "shop": "supermarket", "ville": null, "code_postal": null, "enseigne": "monoprix", "est_cible": true, "longitude": 2.2948576, "latitude": 48.8366804 }, "geometry": { "type": "Point", "coordinates": [ 2.2948576, 48.8366804 ] } },
{ "type": "Feature", "properties": { "element": "node", "id": 310054182, "name": "Carrefour City", "brand": "Carrefour City", "operator": "Groupe Carrefour", "shop": "convenience", "ville": null, "code_postal": null, "enseigne": "carrefour city", "est_cible": true, "longitude": 2.2951587, "latitude": 48.836409 }, "geometry": { "type": "Point", "coordinates": [ 2.2951587, 48.836409 ] } },
{ "type": "Feature", "properties": { "element": "node", "id": 310990566, "name": "Carrefour", "brand": "Carrefour", "operator": null, "shop": "supermarket", "ville": null, "code_postal": null, "enseigne": "carrefour", "est_cible": true, "longitude": 2.3268993, "latitude": 48.8047357 }, "geometry": { "type": "Point", "coordinates": [ 2.3268993, 48.8047357 ] } },
{ "type": "Feature", "properties": { "element": "node", "id": 312765467, "name": "Carrefour City", "brand": "Carrefour City", "operator": "Groupe Carrefour", "shop": "convenience", "ville": null, "code_postal": null, "enseigne": "carrefour city", "est_cible": true, "longitude": 2.28736, "latitude": 48.8457327 }, "geometry": { "type": "Point", "coordinates": [ 2.28736, 48.8457327 ] } },
{ "type": "Feature", "properties": { "element": "node", "id": 313405505, "name": "Total Access", "brand": "TotalEnergies", "operator": "Total", "shop": "convenience", "ville": null, "code_postal": null, "enseigne": "totalenergies", "est_cible": false, "longitude": 1.9513017, "latitude": 48.767454 }, "geometry": { "type": "Point", "coordinates": [ 1.9513017, 48.767454 ] } },
{ "type": "Feature", "properties": { "element": "node", "id": 315765309, "name": "Monoprix", "brand": "Monoprix", "operator": "Groupe Casino", "shop": "supermarket", "ville": null, "code_postal": null, "enseigne": "monoprix", "est_cible": true, "longitude": 2.3286779, "latitude": 48.8303333 }, "geometry": { "type": "Point", "coordinates": [ 2.3286779, 48.8303333 ] } },
{ "type": "Feature", "properties": { "element": "node", "id": 315786707, "name": "Franprix", "brand": "Franprix", "operator": null, "shop": "convenience", "ville": null, "code_postal": null, "enseigne": "franprix", "est_cible": true, "longitude": 2.3454978, "latitude": 48.844575 }, "geometry": { "type": "Point", "coordinates": [ 2.3454978, 48.844575 ] } },
{ "type": "Feature", "properties": { "element": "node", "id": 315998220, "name": "Carrefour City", "brand": null, "operator": null, "shop": "supermarket", "ville": null, "code_postal": null, "enseigne": "inconnu", "est_cible": false, "longitude": 2.0523433, "latitude": 48.8140857 }, "geometry": { "type": "Point", "coordinates": [ 2.0523433, 48.8140857 ] } },
{ "type": "Feature", "properties": { "element": "node", "id": 321259611, "name": "Aldi", "brand": "Aldi", "operator": null, "shop": "supermarket", "ville": null, "code_postal": null, "enseigne": "aldi", "est_cible": true, "longitude": 2.3609723, "latitude": 48.8332905 }, "geometry": { "type": "Point", "coordinates": [ 2.3609723, 48.8332905 ] } },
{ "type": "Feature", "properties": { "element": "node", "id": 321932887, "name": "Sitis Market", "brand": null, "operator": "SiTiS", "shop": "convenience", "ville": null, "code_postal": null, "enseigne": "inconnu", "est_cible": false, "longitude": 2.3453388, "latitude": 48.8406857 }, "geometry": { "type": "Point", "coordinates": [ 2.3453388, 48.8406857 ] } },
{ "type": "Feature", "properties": { "element": "node", "id": 325682977, "name": "Monoprix", "brand": "Monoprix", "operator": "Groupe Casino", "shop": "supermarket", "ville": null, "code_postal": null, "enseigne": "monoprix", "est_cible": true, "longitude": 2.3325318, "latitude": 48.8534094 }, "geometry": { "type": "Point", "coordinates": [ 2.3325318, 48.8534094 ] } },
{ "type": "Feature", "properties": { "element": "node", "id": 325766149, "name": "Total", "brand": "TotalEnergies", "operator": "Total", "shop": "convenience", "ville": null, "code_postal": null, "enseigne": "totalenergies", "est_cible": false, "longitude": 2.4444963, "latitude": 48.7801034 }, "geometry": { "type": "Point", "coordinates": [ 2.4444963, 48.7801034 ] } },
{ "type": "Feature", "properties": { "element": "node", "id": 326334714, "name": "Lidl", "brand": "Lidl", "operator": "Lidl", "shop": "supermarket", "ville": null, "code_postal": "75011", "enseigne": "lidl", "est_cible": true, "longitude": 2.3781979, "latitude": 48.8640484 }, "geometry": { "type": "Point", "coordinates": [ 2.3781979, 48.8640484 ] } },
{ "type": "Feature", "properties": { "element": "node", "id": 326334727, "name": "Monop'", "brand": "Monop'", "operator": "Groupe Casino", "shop": "convenience", "ville": null, "code_postal": null, "enseigne": "monop'", "est_cible": false, "longitude": 2.380561, "latitude": 48.8619244 }, "geometry": { "type": "Point", "coordinates": [ 2.380561, 48.8619244 ] } },
{ "type": "Feature", "properties": { "element": "node", "id": 326948277, "name": "Franprix", "brand": "Franprix", "operator": "Groupe Casino", "shop": "convenience", "ville": null, "code_postal": null, "enseigne": "franprix", "est_cible": true, "longitude": 2.3650646, "latitude": 48.8801829 }, "geometry": { "type": "Point", "coordinates": [ 2.3650646, 48.8801829 ] } },
{ "type": "Feature", "properties": { "element": "node", "id": 327570495, "name": "Franprix", "brand": "Franprix", "operator": "Groupe Casino", "shop": "convenience", "ville": "Paris", "code_postal": "75011", "enseigne": "franprix", "est_cible": true, "longitude": 2.3812753, "latitude": 48.863486 }, "geometry": { "type": "Point", "coordinates": [ 2.3812753, 48.863486 ] } },
{ "type": "Feature", "properties": { "element": "node", "id": 330494873, "name": "Lidl", "brand": "Lidl", "operator": null, "shop": "supermarket", "ville": "Paris", "code_postal": "75014", "enseigne": "lidl", "est_cible": true, "longitude": 2.3221697, "latitude": 48.8400818 }, "geometry": { "type": "Point", "coordinates": [ 2.3221697, 48.8400818 ] } },
{ "type": "Feature", "properties": { "element": "node", "id": 332087204, "name": "Auchan Supermarché", "brand": "Auchan Supermarché", "operator": null, "shop": "supermarket", "ville": null, "code_postal": "75011", "enseigne": "auchan supermarché", "est_cible": false, "longitude": 2.3805487, "latitude": 48.8584763 }, "geometry": { "type": "Point", "coordinates": [ 2.3805487, 48.8584763 ] } },
{ "type": "Feature", "properties": { "element": "node", "id": 335877238, "name": "Franprix", "brand": "Leader Price", "operator": "Leader Price", "shop": "supermarket", "ville": null, "code_postal": null, "enseigne": "leader price", "est_cible": false, "longitude": 2.4140577, "latitude": 48.7717355 }, "geometry": { "type": "Point", "coordinates": [ 2.4140577, 48.7717355 ] } },
{ "type": "Feature", "properties": { "element": "node", "id": 340402107, "name": "Franprix", "brand": "Franprix", "operator": "Groupe Casino", "shop": "convenience", "ville": null, "code_postal": null, "enseigne": "franprix", "est_cible": true, "longitude": 2.3901866, "latitude": 48.8506007 }, "geometry": { "type": "Point", "coordinates": [ 2.3901866, 48.8506007 ] } },
{ "type": "Feature", "properties": { "element": "node", "id": 343527942, "name": "Carrefour City", "brand": "Carrefour City", "operator": "Carrefour City", "shop": "convenience", "ville": null, "code_postal": null, "enseigne": "carrefour city", "est_cible": true, "longitude": 2.197882, "latitude": 48.8259344 }, "geometry": { "type": "Point", "coordinates": [ 2.197882, 48.8259344 ] } },
{ "type": "Feature", "properties": { "element": "node", "id": 343639785, "name": "Inconnu", "brand": null, "operator": null, "shop": "convenience", "ville": null, "code_postal": null, "enseigne": "inconnu", "est_cible": false, "longitude": 2.4509942, "latitude": 48.7859067 }, "geometry": { "type": "Point", "coordinates": [ 2.4509942, 48.7859067 ] } },
{ "type": "Feature", "properties": { "element": "node", "id": 344391400, "name": "Franprix", "brand": "Franprix", "operator": "Franprix", "shop": "supermarket", "ville": null, "code_postal": null, "enseigne": "franprix", "est_cible": true, "longitude": 2.4575591, "latitude": 48.7729486 }, "geometry": { "type": "Point", "coordinates": [ 2.4575591, 48.7729486 ] } },
{ "type": "Feature", "properties": { "element": "node", "id": 344395857, "name": "Lidl", "brand": "Lidl", "operator": "Lidl", "shop": "supermarket", "ville": null, "code_postal": null, "enseigne": "lidl", "est_cible": true, "longitude": 2.4630929, "latitude": 48.7772006 }, "geometry": { "type": "Point", "coordinates": [ 2.4630929, 48.7772006 ] } },
{ "type": "Feature", "properties": { "element": "node", "id": 344508433, "name": "Inconnu", "brand": null, "operator": null, "shop": "convenience", "ville": null, "code_postal": null, "enseigne": "inconnu", "est_cible": false, "longitude": 2.4556296, "latitude": 48.8056364 }, "geometry": { "type": "Point", "coordinates": [ 2.4556296, 48.8056364 ] } },
{ "type": "Feature", "properties": { "element": "node", "id": 354427308, "name": "Carrefour", "brand": "Carrefour", "operator": "Carrefour", "shop": "supermarket", "ville": "Montigny-le-Bretonneux", "code_postal": "78180", "enseigne": "carrefour", "est_cible": true, "longitude": 2.044181, "latitude": 48.7848388 }, "geometry": { "type": "Point", "coordinates": [ 2.044181, 48.7848388 ] } },
{ "type": "Feature", "properties": { "element": "node", "id": 361128869, "name": "Carrefour City", "brand": "Carrefour City", "operator": "Groupe Carrefour", "shop": "convenience", "ville": null, "code_postal": null, "enseigne": "carrefour city", "est_cible": true, "longitude": 2.3598989, "latitude": 48.8711773 }, "geometry": { "type": "Point", "coordinates": [ 2.3598989, 48.8711773 ] } },
{ "type": "Feature", "properties": { "element": "node", "id": 361436964, "name": "Carrefour", "brand": "Carrefour", "operator": "Carrefour", "shop": "supermarket", "ville": null, "code_postal": null, "enseigne": "carrefour", "est_cible": true, "longitude": 1.8273478, "latitude": 48.6271609 }, "geometry": { "type": "Point", "coordinates": [ 1.8273478, 48.6271609 ] } },
{ "type": "Feature", "properties": { "element": "node", "id": 365137991, "name": "G20", "brand": "G20", "operator": "G20", "shop": "supermarket", "ville": null, "code_postal": null, "enseigne": "g20", "est_cible": true, "longitude": 2.4016481, "latitude": 48.8515486 }, "geometry": { "type": "Point", "coordinates": [ 2.4016481, 48.8515486 ] } },
{ "type": "Feature", "properties": { "element": "node", "id": 373744329, "name": "Monoprix", "brand": "Monoprix", "operator": "Groupe Casino", "shop": "supermarket", "ville": null, "code_postal": null, "enseigne": "monoprix", "est_cible": true, "longitude": 2.3235383, "latitude": 48.8291076 }, "geometry": { "type": "Point", "coordinates": [ 2.3235383, 48.8291076 ] } },
{ "type": "Feature", "properties": { "element": "node", "id": 385145849, "name": "Carrefour City", "brand": "Carrefour City", "operator": "Groupe Carrefour", "shop": "convenience", "ville": null, "code_postal": null, "enseigne": "carrefour city", "est_cible": true, "longitude": 2.4060046, "latitude": 48.8520109 }, "geometry": { "type": "Point", "coordinates": [ 2.4060046, 48.8520109 ] } },
{ "type": "Feature", "properties": { "element": "node", "id": 390291644, "name": "Le Petit Casino", "brand": "Le Petit Casino", "operator": "Casino", "shop": "convenience", "ville": null, "code_postal": null, "enseigne": "le petit casino", "est_cible": true, "longitude": 2.444721, "latitude": 48.8522629 }, "geometry": { "type": "Point", "coordinates": [ 2.444721, 48.8522629 ] } },
{ "type": "Feature", "properties": { "element": "node", "id": 408501350, "name": "CocciMarket City", "brand": "CocciMarket City", "operator": null, "shop": "convenience", "ville": null, "code_postal": null, "enseigne": "coccimarket city", "est_cible": false, "longitude": 2.3359868, "latitude": 48.8979715 }, "geometry": { "type": "Point", "coordinates": [ 2.3359868, 48.8979715 ] } },
{ "type": "Feature", "properties": { "element": "node", "id": 408505075, "name": "Naturalia", "brand": "Naturalia", "operator": null, "shop": "supermarket", "ville": "Montreuil", "code_postal": "93100", "enseigne": "naturalia", "est_cible": true, "longitude": 2.4240926, "latitude": 48.8527019 }, "geometry": { "type": "Point", "coordinates": [ 2.4240926, 48.8527019 ] } },
{ "type": "Feature", "properties": { "element": "node", "id": 410463368, "name": "Inconnu", "brand": null, "operator": "Marché des Mortefontaines", "shop": "supermarket", "ville": null, "code_postal": null, "enseigne": "inconnu", "est_cible": false, "longitude": 2.3215057, "latitude": 48.9718724 }, "geometry": { "type": "Point", "coordinates": [ 2.3215057, 48.9718724 ] } },
{ "type": "Feature", "properties": { "element": "node", "id": 414721312, "name": "Franprix", "brand": "Franprix", "operator": "Groupe Casino", "shop": "convenience", "ville": "Montreuil", "code_postal": "93100", "enseigne": "franprix", "est_cible": true, "longitude": 2.4339667, "latitude": 48.8509945 }, "geometry": { "type": "Point", "coordinates": [ 2.4339667, 48.8509945 ] } },
{ "type": "Feature", "properties": { "element": "node", "id": 414722748, "name": "Franprix", "brand": "Franprix", "operator": "Groupe Casino", "shop": "convenience", "ville": null, "code_postal": null, "enseigne": "franprix", "est_cible": true, "longitude": 2.4264272, "latitude": 48.8531108 }, "geometry": { "type": "Point", "coordinates": [ 2.4264272, 48.8531108 ] } },
{ "type": "Feature", "properties": { "element": "node", "id": 415923608, "name": "Carrefour City", "brand": "Carrefour City", "operator": "Carrefour", "shop": "convenience", "ville": null, "code_postal": null, "enseigne": "carrefour city", "est_cible": true, "longitude": 2.3212597, "latitude": 48.9712401 }, "geometry": { "type": "Point", "coordinates": [ 2.3212597, 48.9712401 ] } },
{ "type": "Feature", "properties": { "element": "node", "id": 416548854, "name": "Franprix", "brand": "Franprix", "operator": "Groupe Casino", "shop": "convenience", "ville": null, "code_postal": null, "enseigne": "franprix", "est_cible": true, "longitude": 2.3728976, "latitude": 48.8671547 }, "geometry": { "type": "Point", "coordinates": [ 2.3728976, 48.8671547 ] } },
{ "type": "Feature", "properties": { "element": "node", "id": 416626727, "name": "Aldi", "brand": "Aldi", "operator": null, "shop": "supermarket", "ville": null, "code_postal": null, "enseigne": "aldi", "est_cible": true, "longitude": 2.3747761, "latitude": 48.8689224 }, "geometry": { "type": "Point", "coordinates": [ 2.3747761, 48.8689224 ] } },
{ "type": "Feature", "properties": { "element": "node", "id": 416631577, "name": "Franprix", "brand": "Franprix", "operator": "Franprix", "shop": "convenience", "ville": null, "code_postal": null, "enseigne": "franprix", "est_cible": true, "longitude": 2.3713825, "latitude": 48.8726806 }, "geometry": { "type": "Point", "coordinates": [ 2.3713825, 48.8726806 ] } },
{ "type": "Feature", "properties": { "element": "node", "id": 416673084, "name": "Bio C' Bon", "brand": "Bio C' Bon", "operator": null, "shop": "supermarket", "ville": null, "code_postal": null, "enseigne": "bio c' bon", "est_cible": false, "longitude": 2.3684913, "latitude": 48.8764439 }, "geometry": { "type": "Point", "coordinates": [ 2.3684913, 48.8764439 ] } },
{ "type": "Feature", "properties": { "element": "node", "id": 416707322, "name": "G20", "brand": "G20", "operator": "SODIPAR", "shop": "supermarket", "ville": null, "code_postal": null, "enseigne": "g20", "est_cible": true, "longitude": 2.3709103, "latitude": 48.8705122 }, "geometry": { "type": "Point", "coordinates": [ 2.3709103, 48.8705122 ] } },
{ "type": "Feature", "properties": { "element": "node", "id": 416709646, "name": "Franprix", "brand": "Franprix", "operator": "Groupe Casino", "shop": "convenience", "ville": null, "code_postal": null, "enseigne": "franprix", "est_cible": true, "longitude": 2.3743386, "latitude": 48.8712322 }, "geometry": { "type": "Point", "coordinates": [ 2.3743386, 48.8712322 ] } },
{ "type": "Feature", "properties": { "element": "node", "id": 416710039, "name": "Monoprix", "brand": "Monoprix", "operator": "Groupe Casino", "shop": "supermarket", "ville": null, "code_postal": null, "enseigne": "monoprix", "est_cible": true, "longitude": 2.3721452, "latitude": 48.8701691 }, "geometry": { "type": "Point", "coordinates": [ 2.3721452, 48.8701691 ] } },
{ "type": "Feature", "properties": { "element": "node", "id": 416711600, "name": "Carrefour City", "brand": "Carrefour City", "operator": "Groupe Carrefour", "shop": "convenience", "ville": null, "code_postal": null, "enseigne": "carrefour city", "est_cible": true, "longitude": 2.3689987, "latitude": 48.8684943 }, "geometry": { "type": "Point", "coordinates": [ 2.3689987, 48.8684943 ] } },
{ "type": "Feature", "properties": { "element": "node", "id": 417926266, "name": "Naturalia", "brand": "Naturalia", "operator": "Groupe Casino", "shop": "supermarket", "ville": null, "code_postal": null, "enseigne": "naturalia", "est_cible": true, "longitude": 2.4347346, "latitude": 48.8452423 }, "geometry": { "type": "Point", "coordinates": [ 2.4347346, 48.8452423 ] } },
{ "type": "Feature", "properties": { "element": "node", "id": 418061334, "name": "Carrefour City", "brand": "Carrefour City", "operator": null, "shop": "convenience", "ville": null, "code_postal": null, "enseigne": "carrefour city", "est_cible": true, "longitude": 2.36718, "latitude": 48.8668657 }, "geometry": { "type": "Point", "coordinates": [ 2.36718, 48.8668657 ] } },
{ "type": "Feature", "properties": { "element": "node", "id": 418077552, "name": "Casino", "brand": "Casino", "operator": "Casino", "shop": "supermarket", "ville": null, "code_postal": "75011", "enseigne": "casino", "est_cible": true, "longitude": 2.3794293, "latitude": 48.86625 }, "geometry": { "type": "Point", "coordinates": [ 2.3794293, 48.86625 ] } },
{ "type": "Feature", "properties": { "element": "node", "id": 418510262, "name": "CocciMarket", "brand": "CocciMarket", "operator": null, "shop": "convenience", "ville": null, "code_postal": null, "enseigne": "coccimarket", "est_cible": false, "longitude": 2.3224346, "latitude": 48.8321107 }, "geometry": { "type": "Point", "coordinates": [ 2.3224346, 48.8321107 ] } },
{ "type": "Feature", "properties": { "element": "node", "id": 426119350, "name": "Carrefour Market", "brand": "Carrefour Market", "operator": "Groupe Carrefour", "shop": "convenience", "ville": null, "code_postal": null, "enseigne": "carrefour market", "est_cible": true, "longitude": 2.3623851, "latitude": 48.8321341 }, "geometry": { "type": "Point", "coordinates": [ 2.3623851, 48.8321341 ] } },
{ "type": "Feature", "properties": { "element": "node", "id": 428032271, "name": "Top Asia", "brand": null, "operator": null, "shop": "supermarket", "ville": "Paris", "code_postal": "75012", "enseigne": "inconnu", "est_cible": false, "longitude": 2.3787232, "latitude": 48.8485694 }, "geometry": { "type": "Point", "coordinates": [ 2.3787232, 48.8485694 ] } },
{ "type": "Feature", "properties": { "element": "node", "id": 428060860, "name": "Franprix", "brand": "Franprix", "operator": "Groupe Casino", "shop": "convenience", "ville": null, "code_postal": null, "enseigne": "franprix", "est_cible": true, "longitude": 2.3774777, "latitude": 48.8480244 }, "geometry": { "type": "Point", "coordinates": [ 2.3774777, 48.8480244 ] } },
{ "type": "Feature", "properties": { "element": "node", "id": 428144809, "name": "Naturalia", "brand": "Naturalia", "operator": "Groupe Casino", "shop": "supermarket", "ville": null, "code_postal": null, "enseigne": "naturalia", "est_cible": true, "longitude": 2.3555277, "latitude": 48.8646253 }, "geometry": { "type": "Point", "coordinates": [ 2.3555277, 48.8646253 ] } },
{ "type": "Feature", "properties": { "element": "node", "id": 433366341, "name": "Monoprix", "brand": "Monoprix", "operator": "Groupe Casino", "shop": "supermarket", "ville": null, "code_postal": "75019", "enseigne": "monoprix", "est_cible": true, "longitude": 2.3833794, "latitude": 48.8860129 }, "geometry": { "type": "Point", "coordinates": [ 2.3833794, 48.8860129 ] } },
{ "type": "Feature", "properties": { "element": "node", "id": 437588302, "name": "Monoprix", "brand": "Monoprix", "operator": "Groupe Casino", "shop": "supermarket", "ville": null, "code_postal": null, "enseigne": "monoprix", "est_cible": true, "longitude": 2.3141078, "latitude": 48.7798843 }, "geometry": { "type": "Point", "coordinates": [ 2.3141078, 48.7798843 ] } },
{ "type": "Feature", "properties": { "element": "node", "id": 441241121, "name": "Monoprix", "brand": "Monoprix", "operator": "Groupe Casino", "shop": "supermarket", "ville": null, "code_postal": "92400", "enseigne": "monoprix", "est_cible": true, "longitude": 2.2683176, "latitude": 48.9027596 }, "geometry": { "type": "Point", "coordinates": [ 2.2683176, 48.9027596 ] } },
{ "type": "Feature", "properties": { "element": "node", "id": 441390751, "name": "Inconnu", "brand": null, "operator": null, "shop": "supermarket", "ville": null, "code_postal": null, "enseigne": "inconnu", "est_cible": false, "longitude": 2.0926795, "latitude": 49.06279 }, "geometry": { "type": "Point", "coordinates": [ 2.0926795, 49.06279 ] } },
{ "type": "Feature", "properties": { "element": "node", "id": 441579641, "name": "Monoprix", "brand": "Monoprix", "operator": "Groupe Casino", "shop": "supermarket", "ville": null, "code_postal": null, "enseigne": "monoprix", "est_cible": true, "longitude": 2.1182028, "latitude": 48.8273972 }, "geometry": { "type": "Point", "coordinates": [ 2.1182028, 48.8273972 ] } },
{ "type": "Feature", "properties": { "element": "node", "id": 441768232, "name": "Sitis Market", "brand": null, "operator": null, "shop": "convenience", "ville": null, "code_postal": null, "enseigne": "inconnu", "est_cible": false, "longitude": 2.1992916, "latitude": 48.8424285 }, "geometry": { "type": "Point", "coordinates": [ 2.1992916, 48.8424285 ] } },
{ "type": "Feature", "properties": { "element": "node", "id": 442110686, "name": "Carrefour Market", "brand": "Carrefour Market", "operator": "Carrefour", "shop": "convenience", "ville": "Ivry-sur-Seine", "code_postal": "94200", "enseigne": "carrefour market", "est_cible": true, "longitude": 2.3847431, "latitude": 48.810919 }, "geometry": { "type": "Point", "coordinates": [ 2.3847431, 48.810919 ] } },
{ "type": "Feature", "properties": { "element": "node", "id": 442110687, "name": "Naturalia", "brand": "Naturalia", "operator": "Naturalia", "shop": "supermarket", "ville": "Ivry-sur-Seine", "code_postal": "94200", "enseigne": "naturalia", "est_cible": true, "longitude": 2.3849919, "latitude": 48.8119704 }, "geometry": { "type": "Point", "coordinates": [ 2.3849919, 48.8119704 ] } },
{ "type": "Feature", "properties": { "element": "node", "id": 442547234, "name": "Carrefour Express", "brand": "Carrefour Express", "operator": "Groupe Carrefour", "shop": "convenience", "ville": null, "code_postal": null, "enseigne": "carrefour express", "est_cible": true, "longitude": 2.3715118, "latitude": 48.8690474 }, "geometry": { "type": "Point", "coordinates": [ 2.3715118, 48.8690474 ] } },
{ "type": "Feature", "properties": { "element": "node", "id": 443454836, "name": "Carrefour", "brand": "Carrefour", "operator": "Carrefour", "shop": "supermarket", "ville": "Rosny-sous-Bois", "code_postal": "93110", "enseigne": "carrefour", "est_cible": true, "longitude": 2.4762073, "latitude": 48.8847815 }, "geometry": { "type": "Point", "coordinates": [ 2.4762073, 48.8847815 ] } },
{ "type": "Feature", "properties": { "element": "node", "id": 444644416, "name": "Carrefour Market", "brand": "Carrefour Market", "operator": "Carrefour", "shop": "supermarket", "ville": null, "code_postal": null, "enseigne": "carrefour market", "est_cible": true, "longitude": 2.9569478, "latitude": 48.3841368 }, "geometry": { "type": "Point", "coordinates": [ 2.9569478, 48.3841368 ] } },
{ "type": "Feature", "properties": { "element": "node", "id": 446144216, "name": "Carrefour Express", "brand": "Carrefour Express", "operator": "Carrefour", "shop": "convenience", "ville": "Malakoff", "code_postal": "92240", "enseigne": "carrefour express", "est_cible": true, "longitude": 2.2867588, "latitude": 48.814414 }, "geometry": { "type": "Point", "coordinates": [ 2.2867588, 48.814414 ] } },
{ "type": "Feature", "properties": { "element": "node", "id": 446866185, "name": "Naturalia", "brand": "Naturalia", "operator": "Groupe Casino", "shop": "supermarket", "ville": null, "code_postal": null, "enseigne": "naturalia", "est_cible": true, "longitude": 2.3897101, "latitude": 48.8740289 }, "geometry": { "type": "Point", "coordinates": [ 2.3897101, 48.8740289 ] } },
{ "type": "Feature", "properties": { "element": "node", "id": 447773449, "name": "Franprix", "brand": "Franprix", "operator": null, "shop": "convenience", "ville": null, "code_postal": null, "enseigne": "franprix", "est_cible": true, "longitude": 2.3187676, "latitude": 48.8174554 }, "geometry": { "type": "Point", "coordinates": [ 2.3187676, 48.8174554 ] } },
{ "type": "Feature", "properties": { "element": "node", "id": 448819325, "name": "U Express", "brand": "U Express", "operator": "Système U", "shop": "supermarket", "ville": null, "code_postal": null, "enseigne": "u express", "est_cible": false, "longitude": 2.3216547, "latitude": 48.816795 }, "geometry": { "type": "Point", "coordinates": [ 2.3216547, 48.816795 ] } },
{ "type": "Feature", "properties": { "element": "node", "id": 449089446, "name": "Auchan Supermarché", "brand": "Auchan Supermarché", "operator": "Auchan Supermarché", "shop": "supermarket", "ville": null, "code_postal": null, "enseigne": "auchan supermarché", "est_cible": false, "longitude": 2.3145574, "latitude": 48.8109713 }, "geometry": { "type": "Point", "coordinates": [ 2.3145574, 48.8109713 ] } },
{ "type": "Feature", "properties": { "element": "node", "id": 450721863, "name": "Intermarché", "brand": "Intermarché", "operator": null, "shop": "supermarket", "ville": null, "code_postal": "75015", "enseigne": "intermarché", "est_cible": true, "longitude": 2.2815351, "latitude": 48.8363475 }, "geometry": { "type": "Point", "coordinates": [ 2.2815351, 48.8363475 ] } },
{ "type": "Feature", "properties": { "element": "node", "id": 451011911, "name": "Monoprix", "brand": "Monoprix", "operator": "Groupe Casino", "shop": "supermarket", "ville": null, "code_postal": null, "enseigne": "monoprix", "est_cible": true, "longitude": 2.4137767, "latitude": 48.8211089 }, "geometry": { "type": "Point", "coordinates": [ 2.4137767, 48.8211089 ] } },
{ "type": "Feature", "properties": { "element": "node", "id": 457836536, "name": "TotalEnergies", "brand": "TotalEnergies", "operator": null, "shop": "convenience", "ville": null, "code_postal": null, "enseigne": "totalenergies", "est_cible": false, "longitude": 2.0426431, "latitude": 48.9746449 }, "geometry": { "type": "Point", "coordinates": [ 2.0426431, 48.9746449 ] } },
{ "type": "Feature", "properties": { "element": "node", "id": 459783450, "name": "monop'", "brand": "monop'", "operator": "Groupe Casino", "shop": "supermarket", "ville": null, "code_postal": null, "enseigne": "monop'", "est_cible": false, "longitude": 2.3521903, "latitude": 48.9172735 }, "geometry": { "type": "Point", "coordinates": [ 2.3521903, 48.9172735 ] } },
{ "type": "Feature", "properties": { "element": "node", "id": 460030348, "name": "Total Relais du Cédre", "brand": "Total", "operator": null, "shop": "convenience", "ville": null, "code_postal": null, "enseigne": "total", "est_cible": false, "longitude": 2.5226994, "latitude": 48.9997985 }, "geometry": { "type": "Point", "coordinates": [ 2.5226994, 48.9997985 ] } },
{ "type": "Feature", "properties": { "element": "node", "id": 461712030, "name": "Carrefour", "brand": "Carrefour", "operator": "Carrefour", "shop": "supermarket", "ville": null, "code_postal": null, "enseigne": "carrefour", "est_cible": true, "longitude": 2.6636376, "latitude": 48.9473578 }, "geometry": { "type": "Point", "coordinates": [ 2.6636376, 48.9473578 ] } },
{ "type": "Feature", "properties": { "element": "node", "id": 462133621, "name": "Monoprix", "brand": "Monoprix", "operator": "Groupe Casino", "shop": "supermarket", "ville": null, "code_postal": null, "enseigne": "monoprix", "est_cible": true, "longitude": 2.2775317, "latitude": 48.8269726 }, "geometry": { "type": "Point", "coordinates": [ 2.2775317, 48.8269726 ] } },
{ "type": "Feature", "properties": { "element": "node", "id": 463700064, "name": "Franprix", "brand": "Franprix", "operator": "Groupe Casino", "shop": "convenience", "ville": "Paris", "code_postal": "75017", "enseigne": "franprix", "est_cible": true, "longitude": 2.3203247, "latitude": 48.8834355 }, "geometry": { "type": "Point", "coordinates": [ 2.3203247, 48.8834355 ] } },
{ "type": "Feature", "properties": { "element": "node", "id": 463703260, "name": "Franprix", "brand": "Franprix", "operator": "Groupe Casino", "shop": "convenience", "ville": null, "code_postal": null, "enseigne": "franprix", "est_cible": true, "longitude": 2.3189274, "latitude": 48.8862362 }, "geometry": { "type": "Point", "coordinates": [ 2.3189274, 48.8862362 ] } },
{ "type": "Feature", "properties": { "element": "node", "id": 463705952, "name": "Carrefour Express", "brand": "Carrefour Express", "operator": "Carrefour Express", "shop": "convenience", "ville": null, "code_postal": null, "enseigne": "carrefour express", "est_cible": true, "longitude": 2.3209236, "latitude": 48.8850436 }, "geometry": { "type": "Point", "coordinates": [ 2.3209236, 48.8850436 ] } },
{ "type": "Feature", "properties": { "element": "node", "id": 463721572, "name": "Monoprix", "brand": "Monoprix", "operator": "Groupe Casino", "shop": "supermarket", "ville": null, "code_postal": null, "enseigne": "monoprix", "est_cible": true, "longitude": 2.3158563, "latitude": 48.8820794 }, "geometry": { "type": "Point", "coordinates": [ 2.3158563, 48.8820794 ] } },
{ "type": "Feature", "properties": { "element": "node", "id": 466373802, "name": "G20", "brand": "G20", "operator": "G20", "shop": "supermarket", "ville": null, "code_postal": null, "enseigne": "g20", "est_cible": true, "longitude": 2.4718433, "latitude": 48.8072273 }, "geometry": { "type": "Point", "coordinates": [ 2.4718433, 48.8072273 ] } },
{ "type": "Feature", "properties": { "element": "node", "id": 467140921, "name": "Iveco", "brand": null, "operator": null, "shop": "convenience", "ville": null, "code_postal": null, "enseigne": "inconnu", "est_cible": false, "longitude": 1.6793396, "latitude": 49.2069931 }, "geometry": { "type": "Point", "coordinates": [ 1.6793396, 49.2069931 ] } },
{ "type": "Feature", "properties": { "element": "node", "id": 467750408, "name": "Franprix", "brand": "Franprix", "operator": "Groupe Casino", "shop": "convenience", "ville": null, "code_postal": null, "enseigne": "franprix", "est_cible": true, "longitude": 2.2731806, "latitude": 48.8284241 }, "geometry": { "type": "Point", "coordinates": [ 2.2731806, 48.8284241 ] } },
{ "type": "Feature", "properties": { "element": "node", "id": 469720206, "name": "Intermarché Express", "brand": "Intermarché Express", "operator": null, "shop": "convenience", "ville": null, "code_postal": "75014", "enseigne": "intermarché express", "est_cible": true, "longitude": 2.3217193, "latitude": 48.8335637 }, "geometry": { "type": "Point", "coordinates": [ 2.3217193, 48.8335637 ] } },
{ "type": "Feature", "properties": { "element": "node", "id": 469754379, "name": "Biocoop", "brand": "Biocoop", "operator": "Biocoop", "shop": "supermarket", "ville": "Le Raincy", "code_postal": "93340", "enseigne": "biocoop", "est_cible": false, "longitude": 2.5174559, "latitude": 48.8997185 }, "geometry": { "type": "Point", "coordinates": [ 2.5174559, 48.8997185 ] } },
{ "type": "Feature", "properties": { "element": "node", "id": 469881673, "name": "Franprix", "brand": "Franprix", "operator": "Groupe Casino", "shop": "convenience", "ville": null, "code_postal": "94110", "enseigne": "franprix", "est_cible": true, "longitude": 2.3317034, "latitude": 48.8077989 }, "geometry": { "type": "Point", "coordinates": [ 2.3317034, 48.8077989 ] } },
{ "type": "Feature", "properties": { "element": "node", "id": 469974649, "name": "Auchan Supermarché", "brand": "Auchan Supermarché", "operator": "Auchan", "shop": "supermarket", "ville": "Paris", "code_postal": "75012", "enseigne": "auchan supermarché", "est_cible": false, "longitude": 2.394404, "latitude": 48.8410504 }, "geometry": { "type": "Point", "coordinates": [ 2.394404, 48.8410504 ] } },
{ "type": "Feature", "properties": { "element": "node", "id": 469986301, "name": "Monoprix", "brand": "Monoprix", "operator": "Groupe Casino", "shop": "supermarket", "ville": null, "code_postal": null, "enseigne": "monoprix", "est_cible": true, "longitude": 2.4014374, "latitude": 48.8377287 }, "geometry": { "type": "Point", "coordinates": [ 2.4014374, 48.8377287 ] } },
{ "type": "Feature", "properties": { "element": "node", "id": 470572045, "name": "Carrefour Market", "brand": "Carrefour Market", "operator": "Carrefour", "shop": "convenience", "ville": null, "code_postal": null, "enseigne": "carrefour market", "est_cible": true, "longitude": 2.3027945, "latitude": 48.8351529 }, "geometry": { "type": "Point", "coordinates": [ 2.3027945, 48.8351529 ] } },
{ "type": "Feature", "properties": { "element": "node", "id": 471549756, "name": "Coccinelle Supermarché", "brand": "Coccinelle Supermarché", "operator": null, "shop": "convenience", "ville": null, "code_postal": null, "enseigne": "coccinelle supermarché", "est_cible": false, "longitude": 2.47223, "latitude": 48.841195 }, "geometry": { "type": "Point", "coordinates": [ 2.47223, 48.841195 ] } },
{ "type": "Feature", "properties": { "element": "node", "id": 471987282, "name": "Carrefour City", "brand": "Carrefour City", "operator": "Carrefour", "shop": "convenience", "ville": "Nogent-sur-Marne", "code_postal": "94130", "enseigne": "carrefour city", "est_cible": true, "longitude": 2.474078, "latitude": 48.8352232 }, "geometry": { "type": "Point", "coordinates": [ 2.474078, 48.8352232 ] } },
{ "type": "Feature", "properties": { "element": "node", "id": 472340221, "name": "Rapid' Market", "brand": null, "operator": null, "shop": "convenience", "ville": null, "code_postal": null, "enseigne": "inconnu", "est_cible": false, "longitude": 2.5539476, "latitude": 48.4756562 }, "geometry": { "type": "Point", "coordinates": [ 2.5539476, 48.4756562 ] } },
{ "type": "Feature", "properties": { "element": "node", "id": 472351945, "name": "Franprix", "brand": "Franprix", "operator": "Groupe Casino", "shop": "convenience", "ville": null, "code_postal": null, "enseigne": "franprix", "est_cible": true, "longitude": 2.4054545, "latitude": 48.8357133 }, "geometry": { "type": "Point", "coordinates": [ 2.4054545, 48.8357133 ] } },
{ "type": "Feature", "properties": { "element": "node", "id": 473429877, "name": "Franprix", "brand": "Franprix", "operator": "Groupe Casino", "shop": "convenience", "ville": null, "code_postal": null, "enseigne": "franprix", "est_cible": true, "longitude": 2.4870869, "latitude": 48.8049017 }, "geometry": { "type": "Point", "coordinates": [ 2.4870869, 48.8049017 ] } },
{ "type": "Feature", "properties": { "element": "node", "id": 473671586, "name": "Auchan Supermarché", "brand": "Auchan Supermarché", "operator": "Auchan Supermarché", "shop": "supermarket", "ville": null, "code_postal": "92500", "enseigne": "auchan supermarché", "est_cible": false, "longitude": 2.1697186, "latitude": 48.8760599 }, "geometry": { "type": "Point", "coordinates": [ 2.1697186, 48.8760599 ] } },
{ "type": "Feature", "properties": { "element": "node", "id": 473838056, "name": "Carrefour City", "brand": "Carrefour City", "operator": "Groupe Carrefour", "shop": "convenience", "ville": null, "code_postal": null, "enseigne": "carrefour city", "est_cible": true, "longitude": 2.3963787, "latitude": 48.8357051 }, "geometry": { "type": "Point", "coordinates": [ 2.3963787, 48.8357051 ] } },
{ "type": "Feature", "properties": { "element": "node", "id": 473838062, "name": "Franprix", "brand": "Franprix", "operator": "Groupe Casino", "shop": "convenience", "ville": null, "code_postal": "75012", "enseigne": "franprix", "est_cible": true, "longitude": 2.3972498, "latitude": 48.8343203 }, "geometry": { "type": "Point", "coordinates": [ 2.3972498, 48.8343203 ] } },
{ "type": "Feature", "properties": { "element": "node", "id": 474696202, "name": "Intermarché Express", "brand": "Intermarché Express", "operator": "Casino", "shop": "convenience", "ville": "Poissy", "code_postal": "78300", "enseigne": "intermarché express", "est_cible": true, "longitude": 2.0422266, "latitude": 48.9280199 }, "geometry": { "type": "Point", "coordinates": [ 2.0422266, 48.9280199 ] } },
{ "type": "Feature", "properties": { "element": "node", "id": 474743465, "name": "Monoprix", "brand": "Monoprix", "operator": "Groupe Casino", "shop": "supermarket", "ville": "Poissy", "code_postal": "78300", "enseigne": "monoprix", "est_cible": true, "longitude": 2.0519913, "latitude": 48.9340124 }, "geometry": { "type": "Point", "coordinates": [ 2.0519913, 48.9340124 ] } },
{ "type": "Feature", "properties": { "element": "node", "id": 476311623, "name": "Carrefour City", "brand": "Carrefour City", "operator": null, "shop": "convenience", "ville": null, "code_postal": null, "enseigne": "carrefour city", "est_cible": true, "longitude": 2.2979809, "latitude": 48.8378906 }, "geometry": { "type": "Point", "coordinates": [ 2.2979809, 48.8378906 ] } },
{ "type": "Feature", "properties": { "element": "node", "id": 476757242, "name": "Relais des Fontaines", "brand": "Total", "operator": "Total", "shop": "convenience", "ville": null, "code_postal": null, "enseigne": "total", "est_cible": false, "longitude": 2.4302306, "latitude": 48.8844643 }, "geometry": { "type": "Point", "coordinates": [ 2.4302306, 48.8844643 ] } },
{ "type": "Feature", "properties": { "element": "node", "id": 477197147, "name": "Proxi", "brand": null, "operator": null, "shop": "convenience", "ville": null, "code_postal": null, "enseigne": "inconnu", "est_cible": false, "longitude": 2.0289161, "latitude": 49.0107505 }, "geometry": { "type": "Point", "coordinates": [ 2.0289161, 49.0107505 ] } },
{ "type": "Feature", "properties": { "element": "node", "id": 477205242, "name": "Franprix", "brand": "Franprix", "operator": "Groupe Casino", "shop": "convenience", "ville": null, "code_postal": null, "enseigne": "franprix", "est_cible": true, "longitude": 2.4022052, "latitude": 48.8771503 }, "geometry": { "type": "Point", "coordinates": [ 2.4022052, 48.8771503 ] } },
{ "type": "Feature", "properties": { "element": "node", "id": 477205243, "name": "Franprix", "brand": "Franprix", "operator": "Groupe Casino", "shop": "convenience", "ville": null, "code_postal": null, "enseigne": "franprix", "est_cible": true, "longitude": 2.4060295, "latitude": 48.8764269 }, "geometry": { "type": "Point", "coordinates": [ 2.4060295, 48.8764269 ] } },
{ "type": "Feature", "properties": { "element": "node", "id": 480680110, "name": "Monoprix", "brand": "Monoprix", "operator": "Groupe Casino", "shop": "supermarket", "ville": null, "code_postal": null, "enseigne": "monoprix", "est_cible": true, "longitude": 2.3776687, "latitude": 48.8299505 }, "geometry": { "type": "Point", "coordinates": [ 2.3776687, 48.8299505 ] } },
{ "type": "Feature", "properties": { "element": "node", "id": 486592818, "name": "Franprix", "brand": "Franprix", "operator": "Groupe Casino", "shop": "convenience", "ville": null, "code_postal": null, "enseigne": "franprix", "est_cible": true, "longitude": 2.3424795, "latitude": 48.8269217 }, "geometry": { "type": "Point", "coordinates": [ 2.3424795, 48.8269217 ] } },
{ "type": "Feature", "properties": { "element": "node", "id": 486592853, "name": "Carrefour Express", "brand": "Carrefour Express", "operator": null, "shop": "convenience", "ville": null, "code_postal": null, "enseigne": "carrefour express", "est_cible": true, "longitude": 2.3384839, "latitude": 48.82682 }, "geometry": { "type": "Point", "coordinates": [ 2.3384839, 48.82682 ] } },
{ "type": "Feature", "properties": { "element": "node", "id": 486592888, "name": "Auchan Supermarché", "brand": "Auchan Supermarché", "operator": null, "shop": "supermarket", "ville": null, "code_postal": null, "enseigne": "auchan supermarché", "est_cible": false, "longitude": 2.3467822, "latitude": 48.8259414 }, "geometry": { "type": "Point", "coordinates": [ 2.3467822, 48.8259414 ] } },
{ "type": "Feature", "properties": { "element": "node", "id": 486592921, "name": "Monoprix", "brand": "Monoprix", "operator": "Groupe Casino", "shop": "supermarket", "ville": null, "code_postal": null, "enseigne": "monoprix", "est_cible": true, "longitude": 2.3440973, "latitude": 48.8284354 }, "geometry": { "type": "Point", "coordinates": [ 2.3440973, 48.8284354 ] } },
{ "type": "Feature", "properties": { "element": "node", "id": 492901366, "name": "Auchan Supermarché", "brand": "Auchan Supermarché", "operator": "Auchan Supermarché", "shop": "supermarket", "ville": null, "code_postal": null, "enseigne": "auchan supermarché", "est_cible": false, "longitude": 2.3162325, "latitude": 48.7698641 }, "geometry": { "type": "Point", "coordinates": [ 2.3162325, 48.7698641 ] } },
{ "type": "Feature", "properties": { "element": "node", "id": 493554431, "name": "Auchan Supermarché", "brand": "Auchan Supermarché", "operator": "Auchan Supermarché", "shop": "supermarket", "ville": null, "code_postal": null, "enseigne": "auchan supermarché", "est_cible": false, "longitude": 2.419777, "latitude": 48.8150056 }, "geometry": { "type": "Point", "coordinates": [ 2.419777, 48.8150056 ] } },
{ "type": "Feature", "properties": { "element": "node", "id": 493729432, "name": "Aldi", "brand": "Aldi", "operator": null, "shop": "supermarket", "ville": null, "code_postal": "75012", "enseigne": "aldi", "est_cible": true, "longitude": 2.4017107, "latitude": 48.8395966 }, "geometry": { "type": "Point", "coordinates": [ 2.4017107, 48.8395966 ] } },
{ "type": "Feature", "properties": { "element": "node", "id": 493809023, "name": "Carrefour Market", "brand": "Carrefour Market", "operator": "Carrefour", "shop": "supermarket", "ville": "Suresnes", "code_postal": "92150", "enseigne": "carrefour market", "est_cible": true, "longitude": 2.2247396, "latitude": 48.8690504 }, "geometry": { "type": "Point", "coordinates": [ 2.2247396, 48.8690504 ] } },
{ "type": "Feature", "properties": { "element": "node", "id": 494225703, "name": "Franprix", "brand": "Franprix", "operator": "Groupe Casino", "shop": "convenience", "ville": null, "code_postal": null, "enseigne": "franprix", "est_cible": true, "longitude": 2.3651094, "latitude": 48.8262033 }, "geometry": { "type": "Point", "coordinates": [ 2.3651094, 48.8262033 ] } },
{ "type": "Feature", "properties": { "element": "node", "id": 494415240, "name": "Primeur", "brand": null, "operator": null, "shop": "convenience", "ville": null, "code_postal": null, "enseigne": "inconnu", "est_cible": false, "longitude": 2.5765714, "latitude": 48.9412441 }, "geometry": { "type": "Point", "coordinates": [ 2.5765714, 48.9412441 ] } },
{ "type": "Feature", "properties": { "element": "node", "id": 494415243, "name": "Expert", "brand": null, "operator": null, "shop": "convenience", "ville": null, "code_postal": null, "enseigne": "inconnu", "est_cible": false, "longitude": 2.5697194, "latitude": 48.9427197 }, "geometry": { "type": "Point", "coordinates": [ 2.5697194, 48.9427197 ] } },
{ "type": "Feature", "properties": { "element": "node", "id": 494654452, "name": "Carrefour Market", "brand": "Carrefour Market", "operator": "Carrefour", "shop": "convenience", "ville": null, "code_postal": null, "enseigne": "carrefour market", "est_cible": true, "longitude": 2.0854708, "latitude": 48.7164431 }, "geometry": { "type": "Point", "coordinates": [ 2.0854708, 48.7164431 ] } },
{ "type": "Feature", "properties": { "element": "node", "id": 494658036, "name": "Auchan Supermarché", "brand": "Auchan Supermarché", "operator": null, "shop": "supermarket", "ville": null, "code_postal": null, "enseigne": "auchan supermarché", "est_cible": false, "longitude": 2.3153662, "latitude": 48.8313155 }, "geometry": { "type": "Point", "coordinates": [ 2.3153662, 48.8313155 ] } },
{ "type": "Feature", "properties": { "element": "node", "id": 496114762, "name": "Naturalia", "brand": "Naturalia", "operator": "Naturalia", "shop": "supermarket", "ville": null, "code_postal": null, "enseigne": "naturalia", "est_cible": true, "longitude": 2.3689158, "latitude": 48.8646989 }, "geometry": { "type": "Point", "coordinates": [ 2.3689158, 48.8646989 ] } },
{ "type": "Feature", "properties": { "element": "node", "id": 496122162, "name": "Franprix", "brand": "Franprix", "operator": "Groupe Casino", "shop": "convenience", "ville": "Paris", "code_postal": "75011", "enseigne": "franprix", "est_cible": true, "longitude": 2.3756962, "latitude": 48.8595538 }, "geometry": { "type": "Point", "coordinates": [ 2.3756962, 48.8595538 ] } },
{ "type": "Feature", "properties": { "element": "node", "id": 500255554, "name": "Monoprix", "brand": "Monoprix", "operator": "Groupe Casino", "shop": "supermarket", "ville": null, "code_postal": null, "enseigne": "monoprix", "est_cible": true, "longitude": 2.3898798, "latitude": 48.8386288 }, "geometry": { "type": "Point", "coordinates": [ 2.3898798, 48.8386288 ] } },
{ "type": "Feature", "properties": { "element": "node", "id": 501568749, "name": "Super U", "brand": "Super U", "operator": "Super U", "shop": "supermarket", "ville": "Chatou", "code_postal": "78400", "enseigne": "super u", "est_cible": true, "longitude": 2.1559335, "latitude": 48.886576 }, "geometry": { "type": "Point", "coordinates": [ 2.1559335, 48.886576 ] } },
{ "type": "Feature", "properties": { "element": "node", "id": 501570570, "name": "Super Viniprix", "brand": null, "operator": null, "shop": "convenience", "ville": null, "code_postal": null, "enseigne": "inconnu", "est_cible": false, "longitude": 2.1575898, "latitude": 48.9007043 }, "geometry": { "type": "Point", "coordinates": [ 2.1575898, 48.9007043 ] } },
{ "type": "Feature", "properties": { "element": "node", "id": 508588020, "name": "Franprix", "brand": "Franprix", "operator": "Groupe Casino", "shop": "convenience", "ville": null, "code_postal": null, "enseigne": "franprix", "est_cible": true, "longitude": 2.3788229, "latitude": 48.8490537 }, "geometry": { "type": "Point", "coordinates": [ 2.3788229, 48.8490537 ] } },
{ "type": "Feature", "properties": { "element": "node", "id": 508588036, "name": "Monoprix", "brand": "Monoprix", "operator": "Groupe Casino", "shop": "supermarket", "ville": null, "code_postal": null, "enseigne": "monoprix", "est_cible": true, "longitude": 2.3882212, "latitude": 48.846186 }, "geometry": { "type": "Point", "coordinates": [ 2.3882212, 48.846186 ] } },
{ "type": "Feature", "properties": { "element": "node", "id": 508588041, "name": "Franprix", "brand": "Franprix", "operator": "Groupe Casino", "shop": "convenience", "ville": null, "code_postal": null, "enseigne": "franprix", "est_cible": true, "longitude": 2.3785954, "latitude": 48.8514693 }, "geometry": { "type": "Point", "coordinates": [ 2.3785954, 48.8514693 ] } },
{ "type": "Feature", "properties": { "element": "node", "id": 508588102, "name": "Carrefour City", "brand": "Carrefour City", "operator": null, "shop": "convenience", "ville": null, "code_postal": null, "enseigne": "carrefour city", "est_cible": true, "longitude": 2.3894677, "latitude": 48.8437369 }, "geometry": { "type": "Point", "coordinates": [ 2.3894677, 48.8437369 ] } },
{ "type": "Feature", "properties": { "element": "node", "id": 512460205, "name": "Cocci Market", "brand": null, "operator": null, "shop": "convenience", "ville": null, "code_postal": null, "enseigne": "inconnu", "est_cible": false, "longitude": 2.7074158, "latitude": 48.4691019 }, "geometry": { "type": "Point", "coordinates": [ 2.7074158, 48.4691019 ] } },
{ "type": "Feature", "properties": { "element": "node", "id": 512460316, "name": "Carrefour Market", "brand": "Carrefour Market", "operator": "Carrefour", "shop": "supermarket", "ville": null, "code_postal": null, "enseigne": "carrefour market", "est_cible": true, "longitude": 2.6967642, "latitude": 48.4840152 }, "geometry": { "type": "Point", "coordinates": [ 2.6967642, 48.4840152 ] } },
{ "type": "Feature", "properties": { "element": "node", "id": 512460326, "name": "Vival", "brand": "Vival", "operator": null, "shop": "convenience", "ville": null, "code_postal": null, "enseigne": "vival", "est_cible": false, "longitude": 2.6927356, "latitude": 48.4740918 }, "geometry": { "type": "Point", "coordinates": [ 2.6927356, 48.4740918 ] } },
{ "type": "Feature", "properties": { "element": "node", "id": 515154276, "name": "Carrefour City", "brand": "Carrefour City", "operator": "Groupe Carrefour", "shop": "convenience", "ville": null, "code_postal": null, "enseigne": "carrefour city", "est_cible": true, "longitude": 2.3851014, "latitude": 48.8736501 }, "geometry": { "type": "Point", "coordinates": [ 2.3851014, 48.8736501 ] } },
{ "type": "Feature", "properties": { "element": "node", "id": 522033653, "name": "Super AZ", "brand": null, "operator": null, "shop": "convenience", "ville": null, "code_postal": null, "enseigne": "inconnu", "est_cible": false, "longitude": 2.2672146, "latitude": 48.9194058 }, "geometry": { "type": "Point", "coordinates": [ 2.2672146, 48.9194058 ] } },
{ "type": "Feature", "properties": { "element": "node", "id": 523275886, "name": "CLG Marché", "brand": null, "operator": null, "shop": "convenience", "ville": null, "code_postal": null, "enseigne": "inconnu", "est_cible": false, "longitude": 2.1950713, "latitude": 48.8889267 }, "geometry": { "type": "Point", "coordinates": [ 2.1950713, 48.8889267 ] } },
{ "type": "Feature", "properties": { "element": "node", "id": 523275891, "name": "Franprix", "brand": "Franprix", "operator": "Leader Price", "shop": "convenience", "ville": null, "code_postal": null, "enseigne": "franprix", "est_cible": true, "longitude": 2.1943812, "latitude": 48.8891267 }, "geometry": { "type": "Point", "coordinates": [ 2.1943812, 48.8891267 ] } },
{ "type": "Feature", "properties": { "element": "node", "id": 524640861, "name": "Zéro Gaspi", "brand": null, "operator": null, "shop": "convenience", "ville": null, "code_postal": null, "enseigne": "inconnu", "est_cible": false, "longitude": 2.1956202, "latitude": 48.8894208 }, "geometry": { "type": "Point", "coordinates": [ 2.1956202, 48.8894208 ] } },
{ "type": "Feature", "properties": { "element": "node", "id": 524640865, "name": "Franprix", "brand": "Franprix", "operator": "Groupe Casino", "shop": "convenience", "ville": null, "code_postal": null, "enseigne": "franprix", "est_cible": true, "longitude": 2.1980349, "latitude": 48.889791 }, "geometry": { "type": "Point", "coordinates": [ 2.1980349, 48.889791 ] } },
{ "type": "Feature", "properties": { "element": "node", "id": 524694742, "name": "Auchan Supermarché", "brand": "Auchan Supermarché", "operator": "Auchan Supermarché", "shop": "supermarket", "ville": "Verneuil-sur-Seine", "code_postal": "78480", "enseigne": "auchan supermarché", "est_cible": false, "longitude": 1.9741361, "latitude": 48.9807993 }, "geometry": { "type": "Point", "coordinates": [ 1.9741361, 48.9807993 ] } },
{ "type": "Feature", "properties": { "element": "node", "id": 530272905, "name": "Monop'", "brand": "Monop'", "operator": "Groupe Casino", "shop": "convenience", "ville": "Paris", "code_postal": null, "enseigne": "monop'", "est_cible": false, "longitude": 2.3724753, "latitude": 48.8462369 }, "geometry": { "type": "Point", "coordinates": [ 2.3724753, 48.8462369 ] } },
{ "type": "Feature", "properties": { "element": "node", "id": 530275192, "name": "Carrefour City", "brand": "Carrefour City", "operator": "Groupe Carrefour", "shop": "convenience", "ville": null, "code_postal": null, "enseigne": "carrefour city", "est_cible": true, "longitude": 2.3763447, "latitude": 48.8511066 }, "geometry": { "type": "Point", "coordinates": [ 2.3763447, 48.8511066 ] } },
{ "type": "Feature", "properties": { "element": "node", "id": 530275193, "name": "Franprix", "brand": "Franprix", "operator": "Franprix", "shop": "convenience", "ville": null, "code_postal": null, "enseigne": "franprix", "est_cible": true, "longitude": 2.3730017, "latitude": 48.8491029 }, "geometry": { "type": "Point", "coordinates": [ 2.3730017, 48.8491029 ] } },
{ "type": "Feature", "properties": { "element": "node", "id": 531496067, "name": "Beyaz", "brand": null, "operator": null, "shop": "convenience", "ville": null, "code_postal": null, "enseigne": "inconnu", "est_cible": false, "longitude": 2.3873421, "latitude": 48.8477171 }, "geometry": { "type": "Point", "coordinates": [ 2.3873421, 48.8477171 ] } },
{ "type": "Feature", "properties": { "element": "node", "id": 532261595, "name": "Chez Miha", "brand": null, "operator": null, "shop": "convenience", "ville": null, "code_postal": null, "enseigne": "inconnu", "est_cible": false, "longitude": 2.2852335, "latitude": 48.84429 }, "geometry": { "type": "Point", "coordinates": [ 2.2852335, 48.84429 ] } },
{ "type": "Feature", "properties": { "element": "node", "id": 533755692, "name": "Paris Store", "brand": "Paris Store", "operator": null, "shop": "supermarket", "ville": null, "code_postal": null, "enseigne": "paris store", "est_cible": false, "longitude": 2.3660411, "latitude": 48.8234104 }, "geometry": { "type": "Point", "coordinates": [ 2.3660411, 48.8234104 ] } },
{ "type": "Feature", "properties": { "element": "node", "id": 534903720, "name": "Franprix", "brand": "Franprix", "operator": "Franprix", "shop": "convenience", "ville": null, "code_postal": null, "enseigne": "franprix", "est_cible": true, "longitude": 2.3751034, "latitude": 48.8461821 }, "geometry": { "type": "Point", "coordinates": [ 2.3751034, 48.8461821 ] } },
{ "type": "Feature", "properties": { "element": "node", "id": 534910050, "name": "Gastronom №12", "brand": null, "operator": null, "shop": "convenience", "ville": null, "code_postal": null, "enseigne": "inconnu", "est_cible": false, "longitude": 2.3752711, "latitude": 48.8458636 }, "geometry": { "type": "Point", "coordinates": [ 2.3752711, 48.8458636 ] } },
{ "type": "Feature", "properties": { "element": "node", "id": 540158326, "name": "Rapid'Market", "brand": null, "operator": null, "shop": "convenience", "ville": null, "code_postal": null, "enseigne": "inconnu", "est_cible": false, "longitude": 2.0916374, "latitude": 49.0495267 }, "geometry": { "type": "Point", "coordinates": [ 2.0916374, 49.0495267 ] } },
{ "type": "Feature", "properties": { "element": "node", "id": 540290642, "name": "CocciMarket", "brand": "CocciMarket", "operator": null, "shop": "convenience", "ville": null, "code_postal": null, "enseigne": "coccimarket", "est_cible": false, "longitude": 2.0913589, "latitude": 49.0498246 }, "geometry": { "type": "Point", "coordinates": [ 2.0913589, 49.0498246 ] } },
{ "type": "Feature", "properties": { "element": "node", "id": 542010088, "name": "Inconnu", "brand": null, "operator": null, "shop": "convenience", "ville": null, "code_postal": null, "enseigne": "inconnu", "est_cible": false, "longitude": 2.4293272, "latitude": 48.6228323 }, "geometry": { "type": "Point", "coordinates": [ 2.4293272, 48.6228323 ] } },
{ "type": "Feature", "properties": { "element": "node", "id": 544504473, "name": "Inconnu", "brand": null, "operator": null, "shop": "convenience", "ville": null, "code_postal": null, "enseigne": "inconnu", "est_cible": false, "longitude": 2.7725709, "latitude": 48.6601969 }, "geometry": { "type": "Point", "coordinates": [ 2.7725709, 48.6601969 ] } },
{ "type": "Feature", "properties": { "element": "node", "id": 544792471, "name": "Inconnu", "brand": null, "operator": null, "shop": "convenience", "ville": null, "code_postal": null, "enseigne": "inconnu", "est_cible": false, "longitude": 2.0923163, "latitude": 49.0490036 }, "geometry": { "type": "Point", "coordinates": [ 2.0923163, 49.0490036 ] } },
{ "type": "Feature", "properties": { "element": "node", "id": 546475280, "name": "Franprix", "brand": "Franprix", "operator": null, "shop": "convenience", "ville": null, "code_postal": null, "enseigne": "franprix", "est_cible": true, "longitude": 2.3218472, "latitude": 48.8769023 }, "geometry": { "type": "Point", "coordinates": [ 2.3218472, 48.8769023 ] } },
{ "type": "Feature", "properties": { "element": "node", "id": 546475287, "name": "Monoprix", "brand": "Monoprix", "operator": "Groupe Casino", "shop": "supermarket", "ville": null, "code_postal": null, "enseigne": "monoprix", "est_cible": true, "longitude": 2.3285538, "latitude": 48.8744523 }, "geometry": { "type": "Point", "coordinates": [ 2.3285538, 48.8744523 ] } },
{ "type": "Feature", "properties": { "element": "node", "id": 546568803, "name": "Inconnu", "brand": null, "operator": null, "shop": "convenience", "ville": null, "code_postal": null, "enseigne": "inconnu", "est_cible": false, "longitude": 2.0961946, "latitude": 49.0520339 }, "geometry": { "type": "Point", "coordinates": [ 2.0961946, 49.0520339 ] } },
{ "type": "Feature", "properties": { "element": "node", "id": 546852300, "name": "Inconnu", "brand": null, "operator": null, "shop": "convenience", "ville": null, "code_postal": null, "enseigne": "inconnu", "est_cible": false, "longitude": 2.0194552, "latitude": 49.0325576 }, "geometry": { "type": "Point", "coordinates": [ 2.0194552, 49.0325576 ] } },
{ "type": "Feature", "properties": { "element": "node", "id": 549993118, "name": "Franprix", "brand": "Franprix", "operator": "Groupe Casino", "shop": "convenience", "ville": "Paris", "code_postal": null, "enseigne": "franprix", "est_cible": true, "longitude": 2.3436484, "latitude": 48.8201447 }, "geometry": { "type": "Point", "coordinates": [ 2.3436484, 48.8201447 ] } },
{ "type": "Feature", "properties": { "element": "node", "id": 550179779, "name": "Inconnu", "brand": null, "operator": null, "shop": "convenience", "ville": null, "code_postal": null, "enseigne": "inconnu", "est_cible": false, "longitude": 2.0938675, "latitude": 49.0535766 }, "geometry": { "type": "Point", "coordinates": [ 2.0938675, 49.0535766 ] } },
{ "type": "Feature", "properties": { "element": "node", "id": 553304985, "name": "Total", "brand": "TotalEnergies", "operator": null, "shop": "convenience", "ville": null, "code_postal": "78100", "enseigne": "totalenergies", "est_cible": false, "longitude": 2.0840496, "latitude": 48.9037936 }, "geometry": { "type": "Point", "coordinates": [ 2.0840496, 48.9037936 ] } },
{ "type": "Feature", "properties": { "element": "node", "id": 553329948, "name": "Carrefour Market", "brand": "Carrefour Market", "operator": "Carrefour", "shop": "convenience", "ville": "Fontenay-aux-Roses", "code_postal": "92260", "enseigne": "carrefour market", "est_cible": true, "longitude": 2.2856377, "latitude": 48.7918512 }, "geometry": { "type": "Point", "coordinates": [ 2.2856377, 48.7918512 ] } },
{ "type": "Feature", "properties": { "element": "node", "id": 553497060, "name": "Auchan Supermarché", "brand": "Auchan Supermarché", "operator": "Auchan", "shop": "supermarket", "ville": "Massy", "code_postal": "91300", "enseigne": "auchan supermarché", "est_cible": false, "longitude": 2.2566885, "latitude": 48.7266618 }, "geometry": { "type": "Point", "coordinates": [ 2.2566885, 48.7266618 ] } },
{ "type": "Feature", "properties": { "element": "node", "id": 553525467, "name": "G20", "brand": "G20", "operator": "G20", "shop": "supermarket", "ville": null, "code_postal": null, "enseigne": "g20", "est_cible": true, "longitude": 2.481461, "latitude": 48.8370665 }, "geometry": { "type": "Point", "coordinates": [ 2.481461, 48.8370665 ] } },
{ "type": "Feature", "properties": { "element": "node", "id": 553525669, "name": "Monoprix", "brand": "Monoprix", "operator": "Groupe Casino", "shop": "supermarket", "ville": null, "code_postal": null, "enseigne": "monoprix", "est_cible": true, "longitude": 2.4914716, "latitude": 48.8381326 }, "geometry": { "type": "Point", "coordinates": [ 2.4914716, 48.8381326 ] } },
{ "type": "Feature", "properties": { "element": "node", "id": 553525882, "name": "Franprix", "brand": "Franprix", "operator": "Groupe Casino", "shop": "convenience", "ville": "Nogent-sur-Marne", "code_postal": "94130", "enseigne": "franprix", "est_cible": true, "longitude": 2.4832945, "latitude": 48.8378804 }, "geometry": { "type": "Point", "coordinates": [ 2.4832945, 48.8378804 ] } },
{ "type": "Feature", "properties": { "element": "node", "id": 553526371, "name": "Franprix", "brand": "Franprix", "operator": "Casino", "shop": "convenience", "ville": null, "code_postal": null, "enseigne": "franprix", "est_cible": true, "longitude": 2.4828124, "latitude": 48.8411472 }, "geometry": { "type": "Point", "coordinates": [ 2.4828124, 48.8411472 ] } },
{ "type": "Feature", "properties": { "element": "node", "id": 558824390, "name": "Cabas Vignois", "brand": null, "operator": null, "shop": "convenience", "ville": null, "code_postal": null, "enseigne": "inconnu", "est_cible": false, "longitude": 1.9282753, "latitude": 49.0785731 }, "geometry": { "type": "Point", "coordinates": [ 1.9282753, 49.0785731 ] } },
{ "type": "Feature", "properties": { "element": "node", "id": 558937294, "name": "STS Marché", "brand": null, "operator": null, "shop": "convenience", "ville": null, "code_postal": null, "enseigne": "inconnu", "est_cible": false, "longitude": 2.0965076, "latitude": 49.050836 }, "geometry": { "type": "Point", "coordinates": [ 2.0965076, 49.050836 ] } },
{ "type": "Feature", "properties": { "element": "node", "id": 560155715, "name": "Carrefour Market", "brand": "Carrefour Market", "operator": "Carrefour", "shop": "convenience", "ville": null, "code_postal": null, "enseigne": "carrefour market", "est_cible": true, "longitude": 2.2198405, "latitude": 48.8890882 }, "geometry": { "type": "Point", "coordinates": [ 2.2198405, 48.8890882 ] } },
{ "type": "Feature", "properties": { "element": "node", "id": 560799680, "name": "Inconnu", "brand": null, "operator": null, "shop": "convenience", "ville": null, "code_postal": null, "enseigne": "inconnu", "est_cible": false, "longitude": 2.0960595, "latitude": 49.0487548 }, "geometry": { "type": "Point", "coordinates": [ 2.0960595, 49.0487548 ] } },
{ "type": "Feature", "properties": { "element": "node", "id": 562971890, "name": "Auchan Supermarché", "brand": "Auchan Supermarché", "operator": null, "shop": "supermarket", "ville": null, "code_postal": null, "enseigne": "auchan supermarché", "est_cible": false, "longitude": 2.099353, "latitude": 49.0178495 }, "geometry": { "type": "Point", "coordinates": [ 2.099353, 49.0178495 ] } },
{ "type": "Feature", "properties": { "element": "node", "id": 565064209, "name": "Alimentation genreale", "brand": null, "operator": null, "shop": "convenience", "ville": "Cormeilles-en-Parisis", "code_postal": "95240", "enseigne": "inconnu", "est_cible": false, "longitude": 2.1943128, "latitude": 48.9696197 }, "geometry": { "type": "Point", "coordinates": [ 2.1943128, 48.9696197 ] } },
{ "type": "Feature", "properties": { "element": "node", "id": 565629549, "name": "Franprix", "brand": "Franprix", "operator": null, "shop": "convenience", "ville": "Ermont", "code_postal": "95120", "enseigne": "franprix", "est_cible": true, "longitude": 2.2625189, "latitude": 48.9895499 }, "geometry": { "type": "Point", "coordinates": [ 2.2625189, 48.9895499 ] } },
{ "type": "Feature", "properties": { "element": "node", "id": 566551856, "name": "Carrefour City", "brand": "Carrefour City", "operator": null, "shop": "convenience", "ville": "Fontainebleau", "code_postal": "77300", "enseigne": "carrefour city", "est_cible": true, "longitude": 2.7017442, "latitude": 48.4063343 }, "geometry": { "type": "Point", "coordinates": [ 2.7017442, 48.4063343 ] } },
{ "type": "Feature", "properties": { "element": "node", "id": 566742112, "name": "GAM", "brand": null, "operator": null, "shop": "convenience", "ville": null, "code_postal": null, "enseigne": "inconnu", "est_cible": false, "longitude": 2.2476054, "latitude": 48.8938762 }, "geometry": { "type": "Point", "coordinates": [ 2.2476054, 48.8938762 ] } },
{ "type": "Feature", "properties": { "element": "node", "id": 574952501, "name": "Inconnu", "brand": null, "operator": null, "shop": "convenience", "ville": null, "code_postal": null, "enseigne": "inconnu", "est_cible": false, "longitude": 2.4837945, "latitude": 48.8990327 }, "geometry": { "type": "Point", "coordinates": [ 2.4837945, 48.8990327 ] } },
{ "type": "Feature", "properties": { "element": "node", "id": 580800078, "name": "Inconnu", "brand": null, "operator": null, "shop": "convenience", "ville": null, "code_postal": null, "enseigne": "inconnu", "est_cible": false, "longitude": 2.8956959, "latitude": 48.342543 }, "geometry": { "type": "Point", "coordinates": [ 2.8956959, 48.342543 ] } },
{ "type": "Feature", "properties": { "element": "node", "id": 581704882, "name": "TotalEnergies", "brand": "TotalEnergies", "operator": null, "shop": "convenience", "ville": null, "code_postal": null, "enseigne": "totalenergies", "est_cible": false, "longitude": 2.189373, "latitude": 48.8877119 }, "geometry": { "type": "Point", "coordinates": [ 2.189373, 48.8877119 ] } },
{ "type": "Feature", "properties": { "element": "node", "id": 582268950, "name": "Apple Bio", "brand": null, "operator": null, "shop": "convenience", "ville": "Ermont", "code_postal": "95120", "enseigne": "inconnu", "est_cible": false, "longitude": 2.2597426, "latitude": 48.9902234 }, "geometry": { "type": "Point", "coordinates": [ 2.2597426, 48.9902234 ] } },
{ "type": "Feature", "properties": { "element": "node", "id": 582750092, "name": "Carrefour City", "brand": "Carrefour City", "operator": "Groupe Carrefour", "shop": "convenience", "ville": "Paris", "code_postal": "75007", "enseigne": "carrefour city", "est_cible": true, "longitude": 2.3059829, "latitude": 48.8548362 }, "geometry": { "type": "Point", "coordinates": [ 2.3059829, 48.8548362 ] } },
{ "type": "Feature", "properties": { "element": "node", "id": 583211403, "name": "G20", "brand": "G20", "operator": "G20", "shop": "supermarket", "ville": null, "code_postal": null, "enseigne": "g20", "est_cible": true, "longitude": 2.3177609, "latitude": 48.8471183 }, "geometry": { "type": "Point", "coordinates": [ 2.3177609, 48.8471183 ] } },
{ "type": "Feature", "properties": { "element": "node", "id": 585395156, "name": "le marché d'à côté", "brand": "le marché d'à côté", "operator": null, "shop": "convenience", "ville": "Ermont", "code_postal": "95120", "enseigne": "le marché d'à côté", "est_cible": false, "longitude": 2.2571785, "latitude": 48.9894606 }, "geometry": { "type": "Point", "coordinates": [ 2.2571785, 48.9894606 ] } },
{ "type": "Feature", "properties": { "element": "node", "id": 587764550, "name": "Aldi", "brand": "Aldi", "operator": "Aldi", "shop": "supermarket", "ville": "La Celle-Saint-Cloud", "code_postal": "78170", "enseigne": "aldi", "est_cible": true, "longitude": 2.1317475, "latitude": 48.8414673 }, "geometry": { "type": "Point", "coordinates": [ 2.1317475, 48.8414673 ] } },
{ "type": "Feature", "properties": { "element": "node", "id": 587787919, "name": "Monoprix", "brand": "Monoprix", "operator": null, "shop": "supermarket", "ville": null, "code_postal": "78170", "enseigne": "monoprix", "est_cible": true, "longitude": 2.1482803, "latitude": 48.8597348 }, "geometry": { "type": "Point", "coordinates": [ 2.1482803, 48.8597348 ] } },
{ "type": "Feature", "properties": { "element": "node", "id": 589495681, "name": "Produits Exotiques", "brand": null, "operator": null, "shop": "convenience", "ville": null, "code_postal": null, "enseigne": "inconnu", "est_cible": false, "longitude": 2.4016977, "latitude": 48.8548542 }, "geometry": { "type": "Point", "coordinates": [ 2.4016977, 48.8548542 ] } },